,Region,Department,Commune_Code_INSEE,City,Number_of_Taxpayers,Average_Assets_in_Euro,Average_Tax_in_Euro,Source_File,Year,latitude,longitude,total_tax_per_city
0,ILE-DE-FRANCE,PARIS,75107,PARIS 7e,4417.0,3395137.0,18722.0,ificom-2022.xlsx,2022.0,48.8560825982,2.31243868773,82695074.0
1,GUADELOUPE,GUADELOUPE,97113,LE GOSIER,57.0,3260706.0,16404.0,ificom-2022.xlsx,2022.0,16.2252192032,-61.4698776652,935028.0
2,LES-HAUTS-DE-FRANCE,OISE,60057,BEAUVAIS,63.0,3063474.0,14153.0,ificom-2022.xlsx,2022.0,49.4365523321,2.08616123661,891639.0
3,ILE-DE-FRANCE,PARIS,75106,PARIS 6e,2899.0,3057838.0,15912.0,ificom-2022.xlsx,2022.0,48.8489680919,2.33267089859,46128888.0
4,PROVENCE-ALPES-COTE D'AZUR,ALPES-MARITIMES,06029,CANNES,707.0,3044836.0,12816.0,ificom-2022.xlsx,2022.0,43.5526202843,7.00427592728,9060912.0
5,ILE-DE-FRANCE,PARIS,75116,PARIS 16e,9670.0,2950290.0,14342.0,ificom-2022.xlsx,2022.0,48.8603987604,2.2620995594,138687140.0
6,ILE-DE-FRANCE,PARIS,75108,PARIS 8e,2344.0,2932880.0,14311.0,ificom-2022.xlsx,2022.0,48.8725272666,2.31258256042,33544984.0
7,ILE-DE-FRANCE,HAUTS-DE-SEINE,92051,NEUILLY SUR SEINE,3857.0,2898055.0,13881.0,ificom-2022.xlsx,2022.0,48.8853719688,2.26642584746,53539017.0
8,ILE-DE-FRANCE,VAL-DE-MARNE,94052,NOGENT SUR MARNE,338.0,2877186.0,9524.0,ificom-2022.xlsx,2022.0,48.8366634713,2.48166741533,3219112.0
9,ILE-DE-FRANCE,PARIS,75101,PARIS 1er,589.0,2832589.0,14142.0,ificom-2022.xlsx,2022.0,48.8626304852,2.33629344655,8329638.0
10,ILE-DE-FRANCE,PARIS,75104,PARIS 4e,954.0,2831332.0,14004.0,ificom-2022.xlsx,2022.0,48.854228282,2.35736193814,13359816.0
11,ILE-DE-FRANCE,ESSONNE,91477,PALAISEAU,76.0,2782407.0,9944.0,ificom-2022.xlsx,2022.0,48.7146765876,2.22881488083,755744.0
12,NOUVELLE-AQUITAINE,CORREZE,19031,BRIVE,66.0,2759759.0,14534.0,ificom-2022.xlsx,2022.0,45.1435830664,1.51936836063,959244.0
13,LES-HAUTS-DE-FRANCE,OISE,60159,COMPIEGNE,114.0,2728272.0,13032.0,ificom-2022.xlsx,2022.0,49.3990601478,2.85317249363,1485648.0
14,ILE-DE-FRANCE,PARIS,75103,PARIS 3e,887.0,2653122.0,13157.0,ificom-2022.xlsx,2022.0,48.8630541318,2.35936105897,11670259.0
15,PROVENCE-ALPES-COTE D'AZUR,ALPES-MARITIMES,06079,MANDELIEU LA NAPOULE,135.0,2583542.0,14558.0,ificom-2022.xlsx,2022.0,43.5380510468,6.91808936542,1965330.0
16,ILE-DE-FRANCE,PARIS,75118,PARIS 18e,948.0,2547934.0,11627.0,ificom-2022.xlsx,2022.0,48.8927350746,2.34871193387,11022396.0
17,ILE-DE-FRANCE,PARIS,75105,PARIS 5e,1782.0,2524413.0,10874.0,ificom-2022.xlsx,2022.0,48.8445086596,2.34985938556,19377468.0
18,GRAND-EST,AUBE,10387,TROYES,54.0,2521151.0,13016.0,ificom-2022.xlsx,2022.0,48.2967099637,4.07827967525,702864.0
19,ILE-DE-FRANCE,PARIS,75117,PARIS 17e,4084.0,2513268.0,10763.0,ificom-2022.xlsx,2022.0,48.8873371665,2.30748555949,43956092.0
20,AUVERGNE-RHONE-ALPES,DROME,26362,VALENCE,76.0,2511479.0,10671.0,ificom-2022.xlsx,2022.0,44.9229811667,4.91444013136,810996.0
21,CENTRE-VAL DE LOIRE,LOIRET,45232,OLIVET,55.0,2489825.0,11836.0,ificom-2022.xlsx,2022.0,47.8546997503,1.88823884753,650980.0
22,LES-HAUTS-DE-FRANCE,NORD,59368,LA MADELEINE,64.0,2486072.0,9666.0,ificom-2022.xlsx,2022.0,50.6548883138,3.06963722507,618624.0
23,BRETAGNE,ILLE-ET-VILAINE,35238,RENNES,651.0,2483808.0,11233.0,ificom-2022.xlsx,2022.0,48.1119791219,-1.68186449144,7312683.0
24,PROVENCE-ALPES-COTE D'AZUR,ALPES-MARITIMES,06030,LE CANNET,158.0,2478350.0,11687.0,ificom-2022.xlsx,2022.0,43.5729768613,7.00642057758,1846546.0
25,ILE-DE-FRANCE,PARIS,75102,PARIS 2e,385.0,2473198.0,11162.0,ificom-2022.xlsx,2022.0,48.8679033789,2.34410716666,4297370.0
26,NOUVELLE-AQUITAINE,GIRONDE,33192,GRADIGNAN,80.0,2472298.0,10348.0,ificom-2022.xlsx,2022.0,44.7709411201,-0.616137682116,827840.0
27,ILE-DE-FRANCE,SEINE-SAINT-DENIS,93045,LES LILAS,58.0,2470766.0,13988.0,ificom-2022.xlsx,2022.0,48.8819208939,2.419667821,811304.0
28,BRETAGNE,FINISTERE,29019,BREST,93.0,2468531.0,11583.0,ificom-2022.xlsx,2022.0,48.4004997828,-4.5027907853,1077219.0
29,ILE-DE-FRANCE,VAL-DE-MARNE,94033,FONTENAY SOUS BOIS,289.0,2464082.0,9964.0,ificom-2022.xlsx,2022.0,48.8511046382,2.47395409774,2879596.0
30,LA REUNION,LA REUNION,97422,TAMPON,95.0,2450843.0,11759.0,ificom-2022.xlsx,2022.0,-21.223274585,55.5584875266,1117105.0
31,LA REUNION,LA REUNION,97411,SAINT DENIS,309.0,2448651.0,10902.0,ificom-2022.xlsx,2022.0,-20.9329708192,55.446867167,3368718.0
32,ILE-DE-FRANCE,VAL-DE-MARNE,94067,SAINT MANDE,455.0,2447837.0,10832.0,ificom-2022.xlsx,2022.0,48.842440243,2.4192191088,4928560.0
33,ILE-DE-FRANCE,HAUTS-DE-SEINE,92064,SAINT CLOUD,710.0,2444826.0,10728.0,ificom-2022.xlsx,2022.0,48.8428741034,2.20864570316,7616880.0
34,ILE-DE-FRANCE,ESSONNE,91421,MONTGERON,62.0,2442476.0,11803.0,ificom-2022.xlsx,2022.0,48.6951531801,2.46249881778,731786.0
35,AUVERGNE-RHONE-ALPES,RHONE,69034,CALUIRE ET CUIRE,267.0,2433972.0,9534.0,ificom-2022.xlsx,2022.0,45.7974053648,4.85124857101,2545578.0
36,GRAND-EST,BAS-RHIN,67482,STRASBOURG,772.0,2428332.0,10243.0,ificom-2022.xlsx,2022.0,48.5712679849,7.76752679517,7907596.0
37,BOURGOGNE-FRANCHE-COMTE,COTE-D'OR,21054,BEAUNE,51.0,2416074.0,9954.0,ificom-2022.xlsx,2022.0,47.0255189366,4.83767985985,507654.0
38,NOUVELLE-AQUITAINE,GIRONDE,33069,LE BOUSCAT,259.0,2410045.0,11182.0,ificom-2022.xlsx,2022.0,44.8661298323,-0.602121558626,2896138.0
39,LES-HAUTS-DE-FRANCE,NORD,59350,LILLE,366.0,2406814.0,9731.0,ificom-2022.xlsx,2022.0,50.6317183168,3.04783272312,3561546.0
40,GRAND-EST,MEURTHE-ET-MOSELLE,54395,NANCY,210.0,2406796.0,9761.0,ificom-2022.xlsx,2022.0,48.6901995499,6.17588254434,2049810.0
41,OCCITANIE,HERAULT,34057,CASTELNAU LE LEZ,103.0,2403847.0,11818.0,ificom-2022.xlsx,2022.0,43.6380218809,3.91265416028,1217254.0
42,ILE-DE-FRANCE,PARIS,75114,PARIS 14e,1944.0,2400093.0,10387.0,ificom-2022.xlsx,2022.0,48.8289932116,2.32710088326,20192328.0
43,PAYS DE LA LOIRE,MAYENNE,53130,LAVAL,80.0,2396354.0,10426.0,ificom-2022.xlsx,2022.0,48.0608565468,-0.766005687142,834080.0
44,ILE-DE-FRANCE,PARIS,75119,PARIS 19e,594.0,2385687.0,9972.0,ificom-2022.xlsx,2022.0,48.886868623,2.38469432787,5923368.0
45,LA REUNION,LA REUNION,97416,SAINT PIERRE,119.0,2383185.0,10730.0,ificom-2022.xlsx,2022.0,-21.3123242427,55.4936155164,1276870.0
46,CORSE,CORSE-DU-SUD,2A004,AJACCIO,191.0,2382146.0,10964.0,ificom-2022.xlsx,2022.0,41.9347926638,8.70132275974,2094124.0
47,GRAND-EST,HAUT-RHIN,68066,COLMAR,94.0,2376246.0,11295.0,ificom-2022.xlsx,2022.0,48.1099405789,7.38468690323,1061730.0
48,ILE-DE-FRANCE,VAL-D'OISE,95428,MONTMORENCY,137.0,2368405.0,10204.0,ificom-2022.xlsx,2022.0,48.9918643363,2.32119797848,1397948.0
49,LES-HAUTS-DE-FRANCE,NORD,59328,LAMBERSART,92.0,2360265.0,9299.0,ificom-2022.xlsx,2022.0,50.6522053005,3.02491174276,855508.0
50,ILE-DE-FRANCE,SEINE-SAINT-DENIS,93051,NOISY LE GRAND,64.0,2351088.0,9794.0,ificom-2022.xlsx,2022.0,48.8361825401,2.56443736814,626816.0
51,NOUVELLE-AQUITAINE,GIRONDE,33063,BORDEAUX,1867.0,2347174.0,10229.0,ificom-2022.xlsx,2022.0,44.8572445351,-0.57369678116,19097543.0
52,PROVENCE-ALPES-COTE D'AZUR,ALPES-MARITIMES,06123,SAINT LAURENT DU VAR,87.0,2342226.0,10307.0,ificom-2022.xlsx,2022.0,43.6859625772,7.18218791815,896709.0
53,ILE-DE-FRANCE,HAUTS-DE-SEINE,92046,MALAKOFF,88.0,2339674.0,9523.0,ificom-2022.xlsx,2022.0,48.8169695977,2.29693599517,838024.0
54,CENTRE-VAL DE LOIRE,EURE-ET-LOIR,28085,CHARTRES,96.0,2337133.0,10689.0,ificom-2022.xlsx,2022.0,48.4471464884,1.50570610616,1026144.0
55,BRETAGNE,FINISTERE,29232,QUIMPER,53.0,2334000.0,10441.0,ificom-2022.xlsx,2022.0,47.9971425162,-4.09111944455,553373.0
56,ILE-DE-FRANCE,HAUTS-DE-SEINE,92044,LEVALLOIS-PERRET,732.0,2332997.0,9423.0,ificom-2022.xlsx,2022.0,48.895071672,2.28688268127,6897636.0
57,LES-HAUTS-DE-FRANCE,NORD,59378,MARCQ EN BAROEUL,288.0,2319071.0,8630.0,ificom-2022.xlsx,2022.0,50.6753348557,3.10093583816,2485440.0
58,PROVENCE-ALPES-COTE D'AZUR,BOUCHES-DU-RHONE,13001,AIX EN PROVENCE,982.0,2318581.0,9540.0,ificom-2022.xlsx,2022.0,43.5360708378,5.39857444582,9368280.0
59,GRAND-EST,HAUT-RHIN,68224,MULHOUSE,90.0,2317745.0,10136.0,ificom-2022.xlsx,2022.0,47.749163303,7.32570047509,912240.0
60,ILE-DE-FRANCE,HAUTS-DE-SEINE,92014,BOURG LA REINE,186.0,2317703.0,9888.0,ificom-2022.xlsx,2022.0,48.7799073627,2.31643010763,1839168.0
61,OCCITANIE,HAUTE-GARONNE,31555,TOULOUSE,1313.0,2315155.0,9539.0,ificom-2022.xlsx,2022.0,43.5963814303,1.43167293364,12524707.0
62,NOUVELLE-AQUITAINE,HAUTE-VIENNE,87085,LIMOGES,149.0,2314909.0,10543.0,ificom-2022.xlsx,2022.0,45.8542549589,1.2487579024,1570907.0
63,ILE-DE-FRANCE,HAUTS-DE-SEINE,92012,BOULOGNE BILLANCOURT,2118.0,2313297.0,9422.0,ificom-2022.xlsx,2022.0,48.8365843138,2.23913599058,19955796.0
64,OCCITANIE,HAUTE-GARONNE,31557,TOURNEFEUILLE,72.0,2312984.0,9890.0,ificom-2022.xlsx,2022.0,43.5781918597,1.33500697752,712080.0
65,NOUVELLE-AQUITAINE,PYRENEES-ATLANTIQUES,64122,BIARRITZ,405.0,2309024.0,9546.0,ificom-2022.xlsx,2022.0,43.4695847227,-1.55309857519,3866130.0
66,AUVERGNE-RHONE-ALPES,RHONE,69202,STE FOY LES LYON,210.0,2307658.0,9841.0,ificom-2022.xlsx,2022.0,45.7359781395,4.79343173908,2066610.0
67,ILE-DE-FRANCE,YVELINES,78646,VERSAILLES,1488.0,2304291.0,8441.0,ificom-2022.xlsx,2022.0,48.8025669671,2.11789297191,12560208.0
68,LES-HAUTS-DE-FRANCE,NORD,59163,CROIX,111.0,2295986.0,7722.0,ificom-2022.xlsx,2022.0,50.6740689994,3.15464041723,857142.0
69,GRAND-EST,MOSELLE,57672,THIONVILLE,67.0,2295044.0,10839.0,ificom-2022.xlsx,2022.0,49.3759716201,6.12928314217,726213.0
70,ILE-DE-FRANCE,HAUTS-DE-SEINE,92004,ASNIERES,405.0,2293332.0,9231.0,ificom-2022.xlsx,2022.0,48.9153530123,2.2880384663,3738555.0
71,PAYS DE LA LOIRE,LOIRE-ATLANTIQUE,44109,NANTES,1099.0,2292473.0,9838.0,ificom-2022.xlsx,2022.0,47.2316356767,-1.54831008605,10811962.0
72,CORSE,HAUTE-CORSE,2B033,BASTIA,62.0,2292098.0,10467.0,ificom-2022.xlsx,2022.0,42.6864768806,9.42502133338,648954.0
73,PROVENCE-ALPES-COTE D'AZUR,ALPES-MARITIMES,06004,ANTIBES,432.0,2291801.0,9827.0,ificom-2022.xlsx,2022.0,43.587465146,7.10635418256,4245264.0
74,CENTRE-VAL DE LOIRE,LOIRET,45234,ORLEANS,176.0,2291263.0,9533.0,ificom-2022.xlsx,2022.0,47.8828634214,1.91610357477,1677808.0
75,ILE-DE-FRANCE,PARIS,75115,PARIS 15e,3602.0,2291263.0,9442.0,ificom-2022.xlsx,2022.0,48.8401554186,2.29355937244,34010084.0
76,PAYS DE LA LOIRE,LOIRE-ATLANTIQUE,44026,CARQUEFOU,58.0,2291033.0,9854.0,ificom-2022.xlsx,2022.0,47.3017191833,-1.47277200095,571532.0
77,PAYS DE LA LOIRE,LOIRE-ATLANTIQUE,44184,ST NAZAIRE,71.0,2284011.0,9248.0,ificom-2022.xlsx,2022.0,47.2802857028,-2.25379927249,656608.0
78,GRAND-EST,MOSELLE,57463,METZ,134.0,2280630.0,9379.0,ificom-2022.xlsx,2022.0,49.1081133279,6.1955245421,1256786.0
79,NOUVELLE-AQUITAINE,GIRONDE,33529,LA TESTE DE BUCH,282.0,2280552.0,9076.0,ificom-2022.xlsx,2022.0,44.5561823053,-1.17530826791,2559432.0
80,ILE-DE-FRANCE,PARIS,75109,PARIS 9e,1403.0,2278963.0,9133.0,ificom-2022.xlsx,2022.0,48.8768961624,2.33746024139,12813599.0
81,AUVERGNE-RHONE-ALPES,ISERE,38185,GRENOBLE,175.0,2275227.0,9034.0,ificom-2022.xlsx,2022.0,45.1821215167,5.72133051752,1580950.0
82,PROVENCE-ALPES-COTE D'AZUR,ALPES-MARITIMES,06085,MOUGINS,269.0,2274836.0,10156.0,ificom-2022.xlsx,2022.0,43.5961410556,7.00129444919,2731964.0
83,PROVENCE-ALPES-COTE D'AZUR,ALPES-MARITIMES,06088,NICE,1336.0,2271328.0,9809.0,ificom-2022.xlsx,2022.0,43.7119992661,7.23826889465,13104824.0
84,PAYS DE LA LOIRE,VENDEE,85047,CHALLANS,54.0,2269019.0,10195.0,ificom-2022.xlsx,2022.0,46.8354416653,-1.84036683139,550530.0
85,PROVENCE-ALPES-COTE D'AZUR,ALPES-MARITIMES,06027,CAGNES SUR MER,161.0,2266062.0,8512.0,ificom-2022.xlsx,2022.0,43.6715162078,7.15275703379,1370432.0
86,PROVENCE-ALPES-COTE D'AZUR,HAUTES-ALPES,05061,GAP,71.0,2264449.0,8403.0,ificom-2022.xlsx,2022.0,44.5798600596,6.06486052138,596613.0
87,OCCITANIE,HERAULT,34032,BEZIERS,88.0,2262229.0,10498.0,ificom-2022.xlsx,2022.0,43.3475883319,3.23076754164,923824.0
88,AUVERGNE-RHONE-ALPES,RHONE,69266,VILLEURBANNE,89.0,2261237.0,9103.0,ificom-2022.xlsx,2022.0,45.7707704179,4.88845817426,810167.0
89,BRETAGNE,ILLE-ET-VILAINE,35288,SAINT MALO,238.0,2260465.0,9930.0,ificom-2022.xlsx,2022.0,48.6400443482,-1.98060627256,2363340.0
90,NORMANDIE,CALVADOS,14118,CAEN,235.0,2255639.0,9789.0,ificom-2022.xlsx,2022.0,49.1847936737,-0.369801713036,2300415.0
91,ILE-DE-FRANCE,PARIS,75111,PARIS 11e,1275.0,2249877.0,8816.0,ificom-2022.xlsx,2022.0,48.8594154976,2.37874106024,11240400.0
92,ILE-DE-FRANCE,VAL-DE-MARNE,94068,SAINT MAUR DES FOSSES,805.0,2249083.0,9264.0,ificom-2022.xlsx,2022.0,48.7990677797,2.49386450452,7457520.0
93,NOUVELLE-AQUITAINE,GIRONDE,33449,SAINT-MEDARD-EN-JALLES,58.0,2248769.0,9611.0,ificom-2022.xlsx,2022.0,44.8832620816,-0.784239883546,557438.0
94,ILE-DE-FRANCE,HAUTS-DE-SEINE,92020,CHATILLON,112.0,2246086.0,9911.0,ificom-2022.xlsx,2022.0,48.8034091756,2.28799131883,1110032.0
95,ILE-DE-FRANCE,YVELINES,78551,SAINT-GERMAIN-EN-LAYE,688.0,2246020.0,8564.0,ificom-2022.xlsx,2022.0,48.9407041394,2.09870929375,5892032.0
96,ILE-DE-FRANCE,HAUTS-DE-SEINE,92063,RUEIL MALMAISON,808.0,2244483.0,8509.0,ificom-2022.xlsx,2022.0,48.8691897371,2.1773406315,6875272.0
97,PROVENCE-ALPES-COTE D'AZUR,BOUCHES-DU-RHONE,13103,SALON DE PROVENCE,68.0,2243553.0,9623.0,ificom-2022.xlsx,2022.0,43.6462885238,5.06814649576,654364.0
98,ILE-DE-FRANCE,HAUTS-DE-SEINE,92071,SCEAUX,403.0,2240038.0,8937.0,ificom-2022.xlsx,2022.0,48.776816369,2.29529414514,3601611.0
99,ILE-DE-FRANCE,HAUTS-DE-SEINE,92062,PUTEAUX,160.0,2236466.0,9574.0,ificom-2022.xlsx,2022.0,48.8837094969,2.23834178314,1531840.0
100,ILE-DE-FRANCE,ESSONNE,91114,BRUNOY,64.0,2234966.0,9753.0,ificom-2022.xlsx,2022.0,48.6964396294,2.50394753271,624192.0
101,ILE-DE-FRANCE,PARIS,75112,PARIS 12e,1269.0,2230613.0,8981.0,ificom-2022.xlsx,2022.0,48.8351562307,2.41980703497,11396889.0
102,NOUVELLE-AQUITAINE,GIRONDE,33522,TALENCE,107.0,2230194.0,9679.0,ificom-2022.xlsx,2022.0,44.8060817507,-0.591124592873,1035653.0
103,NOUVELLE-AQUITAINE,GIRONDE,33318,PESSAC,132.0,2229603.0,8621.0,ificom-2022.xlsx,2022.0,44.7915990521,-0.676303166277,1137972.0
104,PROVENCE-ALPES-COTE D'AZUR,ALPES-MARITIMES,06155,VALLAURIS,161.0,2228119.0,9454.0,ificom-2022.xlsx,2022.0,43.5766472999,7.05836612893,1522094.0
105,PROVENCE-ALPES-COTE D'AZUR,ALPES-MARITIMES,06069,GRASSE,123.0,2224910.0,9436.0,ificom-2022.xlsx,2022.0,43.655639428,6.93190508233,1160628.0
106,ILE-DE-FRANCE,PARIS,75120,PARIS 20e,599.0,2216894.0,8527.0,ificom-2022.xlsx,2022.0,48.8631867774,2.40081982673,5107673.0
107,PAYS DE LA LOIRE,SARTHE,72181,LE MANS,173.0,2216505.0,9133.0,ificom-2022.xlsx,2022.0,47.9885256718,0.200030493539,1580009.0
108,NOUVELLE-AQUITAINE,PYRENEES-ATLANTIQUES,64102,BAYONNE,144.0,2208999.0,9090.0,ificom-2022.xlsx,2022.0,43.4922254016,-1.46607674358,1308960.0
109,PROVENCE-ALPES-COTE D'AZUR,VAR,83137,TOULON,257.0,2208321.0,8917.0,ificom-2022.xlsx,2022.0,43.1361589728,5.93239634249,2291669.0
110,LA REUNION,LA REUNION,97415,SAINT PAUL,208.0,2205636.0,9531.0,ificom-2022.xlsx,2022.0,-21.0445317522,55.3223334298,1982448.0
111,NOUVELLE-AQUITAINE,GIRONDE,33281,MERIGNAC,177.0,2204196.0,9551.0,ificom-2022.xlsx,2022.0,44.8322953289,-0.681733084891,1690527.0
112,OCCITANIE,PYRENEES-ORIENTALES,66136,PERPIGNAN,136.0,2203538.0,9390.0,ificom-2022.xlsx,2022.0,42.6965954131,2.89936953979,1277040.0
113,GRAND-EST,MARNE,51454,REIMS,292.0,2203260.0,8888.0,ificom-2022.xlsx,2022.0,49.2514906066,4.0402302322,2595296.0
114,ILE-DE-FRANCE,HAUTS-DE-SEINE,92060,LE PLESSIS ROBINSON,75.0,2201628.0,8423.0,ificom-2022.xlsx,2022.0,48.7804383642,2.26064286011,631725.0
115,ILE-DE-FRANCE,HAUTS-DE-SEINE,92035,LA GARENNE COLOMBES,194.0,2199215.0,9203.0,ificom-2022.xlsx,2022.0,48.9067577111,2.24464604084,1785382.0
116,OCCITANIE,HERAULT,34172,MONTPELLIER,481.0,2198533.0,9275.0,ificom-2022.xlsx,2022.0,43.6134409138,3.86851657896,4461275.0
117,AUVERGNE-RHONE-ALPES,DROME,26198,MONTELIMAR,61.0,2198308.0,9430.0,ificom-2022.xlsx,2022.0,44.5540845734,4.74869387765,575230.0
118,OCCITANIE,GARD,30189,NIMES,237.0,2192135.0,9472.0,ificom-2022.xlsx,2022.0,43.844938394,4.34806796996,2244864.0
119,ILE-DE-FRANCE,PARIS,75113,PARIS 13e,1135.0,2191950.0,8705.0,ificom-2022.xlsx,2022.0,48.8287176845,2.36246822852,9880175.0
120,LES-HAUTS-DE-FRANCE,SOMME,80021,AMIENS,169.0,2190789.0,8679.0,ificom-2022.xlsx,2022.0,49.9009532186,2.29007445539,1466751.0
121,AUVERGNE-RHONE-ALPES,RHONE,69244,TASSIN-LA-DEMI-LUNE,142.0,2190777.0,8590.0,ificom-2022.xlsx,2022.0,45.7628681769,4.75540595543,1219780.0
122,ILE-DE-FRANCE,PARIS,75110,PARIS 10e,714.0,2183052.0,8458.0,ificom-2022.xlsx,2022.0,48.8760285569,2.36111290456,6039012.0
123,PROVENCE-ALPES-COTE D'AZUR,BOUCHES-DU-RHONE,13002,ALLAUCH,51.0,2181350.0,10338.0,ificom-2022.xlsx,2022.0,43.3533145712,5.51134767187,527238.0
124,AUVERGNE-RHONE-ALPES,RHONE,69204,SAINT-GENIS-LAVAL,78.0,2178521.0,8276.0,ificom-2022.xlsx,2022.0,45.6936777293,4.78919028453,645528.0
125,ILE-DE-FRANCE,HAUTS-DE-SEINE,92024,CLICHY,62.0,2176911.0,9074.0,ificom-2022.xlsx,2022.0,48.9035359139,2.30575230452,562588.0
126,ILE-DE-FRANCE,VAL-DE-MARNE,94018,CHARENTON LE PONT,245.0,2176289.0,8415.0,ificom-2022.xlsx,2022.0,48.8228084978,2.40760915477,2061675.0
127,ILE-DE-FRANCE,VAL-DE-MARNE,94017,CHAMPIGNY SUR MARNE,76.0,2167405.0,8917.0,ificom-2022.xlsx,2022.0,48.817254364,2.51709815257,677692.0
128,ILE-DE-FRANCE,HAUTS-DE-SEINE,92050,NANTERRE,110.0,2167359.0,8826.0,ificom-2022.xlsx,2022.0,48.8960701282,2.20671346353,970860.0
129,NORMANDIE,SEINE-MARITIME,76351,LE HAVRE,118.0,2164953.0,8925.0,ificom-2022.xlsx,2022.0,49.498452502,0.140153719153,1053150.0
130,LES-HAUTS-DE-FRANCE,NORD,59183,DUNKERQUE,59.0,2164627.0,8918.0,ificom-2022.xlsx,2022.0,51.0307229078,2.33752414095,526162.0
131,PROVENCE-ALPES-COTE D'AZUR,VAR,83069,HYERES,252.0,2163800.0,8255.0,ificom-2022.xlsx,2022.0,43.1018713534,6.18898508469,2080260.0
132,ILE-DE-FRANCE,VAL-DE-MARNE,94080,VINCENNES,522.0,2163228.0,8143.0,ificom-2022.xlsx,2022.0,48.8473732045,2.43798650741,4250646.0
133,ILE-DE-FRANCE,VAL-DE-MARNE,94046,MAISONS-ALFORT,136.0,2163052.0,8631.0,ificom-2022.xlsx,2022.0,48.8063923267,2.43818248906,1173816.0
134,NOUVELLE-AQUITAINE,CHARENTE-MARITIME,17300,LA ROCHELLE,305.0,2161802.0,8229.0,ificom-2022.xlsx,2022.0,46.1620643972,-1.17465702836,2509845.0
135,PAYS DE LA LOIRE,MAINE-ET-LOIRE,49007,ANGERS,220.0,2159961.0,8320.0,ificom-2022.xlsx,2022.0,47.476837416,-0.556125995444,1830400.0
136,BOURGOGNE-FRANCHE-COMTE,COTE-D'OR,21231,DIJON,200.0,2159030.0,8599.0,ificom-2022.xlsx,2022.0,47.3229437965,5.03788805877,1719800.0
137,ILE-DE-FRANCE,VAL-DE-MARNE,94058,LE PERREUX SUR MARNE,203.0,2158288.0,8492.0,ificom-2022.xlsx,2022.0,48.8423952383,2.50406848573,1723876.0
138,NORMANDIE,SEINE-MARITIME,76540,ROUEN,197.0,2156208.0,8387.0,ificom-2022.xlsx,2022.0,49.4413460103,1.09256784278,1652239.0
139,PROVENCE-ALPES-COTE D'AZUR,BOUCHES-DU-RHONE,13028,LA CIOTAT,122.0,2155687.0,9050.0,ificom-2022.xlsx,2022.0,43.1926410861,5.61318955778,1104100.0
140,ILE-DE-FRANCE,HAUTS-DE-SEINE,92049,MONTROUGE,246.0,2152624.0,9205.0,ificom-2022.xlsx,2022.0,48.8153032159,2.31648921432,2264430.0
141,ILE-DE-FRANCE,VAL-DE-MARNE,94081,VITRY SUR SEINE,53.0,2147960.0,9237.0,ificom-2022.xlsx,2022.0,48.7882828307,2.39412680533,489561.0
142,ILE-DE-FRANCE,YVELINES,78158,LE CHESNAY-ROCQUENCOURT,379.0,2146550.0,7995.0,ificom-2022.xlsx,2022.0,48.8272397742,2.13014908209,3030105.0
143,PROVENCE-ALPES-COTE D'AZUR,VAR,83118,SAINT-RAPHAEL,362.0,2146528.0,8610.0,ificom-2022.xlsx,2022.0,43.4574625431,6.84734210398,3116820.0
144,LES-HAUTS-DE-FRANCE,NORD,59646,WASQUEHAL,87.0,2145642.0,8167.0,ificom-2022.xlsx,2022.0,50.6750984751,3.12858017096,710529.0
145,ILE-DE-FRANCE,VAL-DE-MARNE,94076,VILLEJUIF,54.0,2140874.0,8892.0,ificom-2022.xlsx,2022.0,48.7928547268,2.36006103249,480168.0
146,AUVERGNE-RHONE-ALPES,SAVOIE,73008,AIX-LES-BAINS,91.0,2137414.0,8716.0,ificom-2022.xlsx,2022.0,45.6978541675,5.90388626955,793156.0
147,ILE-DE-FRANCE,HAUTS-DE-SEINE,92072,SEVRES,333.0,2134555.0,8225.0,ificom-2022.xlsx,2022.0,48.821476509,2.21052297438,2738925.0
148,ILE-DE-FRANCE,YVELINES,78126,LA CELLE-SAINT-CLOUD,217.0,2133828.0,7671.0,ificom-2022.xlsx,2022.0,48.8469487124,2.13519126228,1664607.0
149,ILE-DE-FRANCE,ESSONNE,91272,GIF SUR YVETTE,118.0,2132069.0,7918.0,ificom-2022.xlsx,2022.0,48.6988273634,2.12788365005,934324.0
150,ILE-DE-FRANCE,YVELINES,78358,MAISONS-LAFFITTE,301.0,2131771.0,8021.0,ificom-2022.xlsx,2022.0,48.9523369002,2.15161594901,2414321.0
151,ILE-DE-FRANCE,SEINE-ET-MARNE,77284,MEAUX,61.0,2127553.0,7920.0,ificom-2022.xlsx,2022.0,48.9570625667,2.90003097245,483120.0
152,AUVERGNE-RHONE-ALPES,HAUTE-SAVOIE,74281,THONON-LES-BAINS,102.0,2127144.0,8641.0,ificom-2022.xlsx,2022.0,46.3704258049,6.48194336071,881382.0
153,ILE-DE-FRANCE,HAUTS-DE-SEINE,92025,COLOMBES,242.0,2126991.0,8046.0,ificom-2022.xlsx,2022.0,48.9225179147,2.24675160629,1947132.0
154,ILE-DE-FRANCE,HAUTS-DE-SEINE,92075,VANVES,170.0,2124748.0,8415.0,ificom-2022.xlsx,2022.0,48.8215227089,2.28739490768,1430550.0
155,ILE-DE-FRANCE,HAUTS-DE-SEINE,92019,CHATENAY MALABRY,126.0,2124573.0,8238.0,ificom-2022.xlsx,2022.0,48.7681690197,2.26282598525,1037988.0
156,ILE-DE-FRANCE,YVELINES,78146,CHATOU,272.0,2122436.0,7476.0,ificom-2022.xlsx,2022.0,48.8965574645,2.15393458329,2033472.0
157,NOUVELLE-AQUITAINE,DEUX-SEVRES,79191,NIORT,56.0,2119336.0,7370.0,ificom-2022.xlsx,2022.0,46.328260242,-0.465353019369,412720.0
158,PAYS DE LA LOIRE,VENDEE,85194,LES SABLES D'OLONNE,193.0,2118891.0,8533.0,ificom-2022.xlsx,2022.0,46.5007612799,-1.79255128677,1646869.0
159,ILE-DE-FRANCE,YVELINES,78517,RAMBOUILLET,91.0,2117592.0,8080.0,ificom-2022.xlsx,2022.0,48.6539051954,1.82652871851,735280.0
160,ILE-DE-FRANCE,SEINE-SAINT-DENIS,93005,AULNAY SOUS BOIS,52.0,2117325.0,8186.0,ificom-2022.xlsx,2022.0,48.9458384367,2.49329041687,425672.0
161,ILE-DE-FRANCE,HAUTS-DE-SEINE,92048,MEUDON,467.0,2116213.0,7413.0,ificom-2022.xlsx,2022.0,48.8037275796,2.22696287829,3461871.0
162,OCCITANIE,TARN-ET-GARONNE,82121,MONTAUBAN,78.0,2114443.0,8140.0,ificom-2022.xlsx,2022.0,44.0222594578,1.36408636501,634920.0
163,OCCITANIE,TARN,81004,ALBI,65.0,2113080.0,8346.0,ificom-2022.xlsx,2022.0,43.9258213622,2.14686328555,542490.0
164,OCCITANIE,HERAULT,34003,AGDE,76.0,2112517.0,8321.0,ificom-2022.xlsx,2022.0,43.309129116,3.48447903133,632396.0
165,BOURGOGNE-FRANCHE-COMTE,DOUBS,25056,BESANCON,106.0,2104686.0,8156.0,ificom-2022.xlsx,2022.0,47.2553872249,6.01948696494,864536.0
166,ILE-DE-FRANCE,HAUTS-DE-SEINE,92073,SURESNES,325.0,2104393.0,7773.0,ificom-2022.xlsx,2022.0,48.8698479132,2.21965517625,2526225.0
167,AUVERGNE-RHONE-ALPES,PUY-DE-DOME,63113,CLERMONT-FERRAND,127.0,2104046.0,8096.0,ificom-2022.xlsx,2022.0,45.7856492991,3.11554542903,1028192.0
168,PROVENCE-ALPES-COTE D'AZUR,VAR,83129,SIX-FOURS-LES-PLAGES,137.0,2100343.0,8070.0,ificom-2022.xlsx,2022.0,43.086818602,5.82924464931,1105590.0
169,NOUVELLE-AQUITAINE,PYRENEES-ATLANTIQUES,64024,ANGLET,306.0,2099088.0,8281.0,ificom-2022.xlsx,2022.0,43.4917846595,-1.51623373371,2533986.0
170,ILE-DE-FRANCE,VAL-DE-MARNE,94071,SUCY EN BRIE,73.0,2099084.0,8074.0,ificom-2022.xlsx,2022.0,48.7656456593,2.5330560803,589402.0
171,CENTRE-VAL DE LOIRE,INDRE-ET-LOIRE,37261,TOURS,232.0,2096669.0,7992.0,ificom-2022.xlsx,2022.0,47.3986382281,0.696526376417,1854144.0
172,CENTRE-VAL DE LOIRE,CHER,18033,BOURGES,52.0,2087067.0,8250.0,ificom-2022.xlsx,2022.0,47.0749572013,2.40417137557,429000.0
173,NOUVELLE-AQUITAINE,PYRENEES-ATLANTIQUES,64445,PAU,117.0,2086255.0,7608.0,ificom-2022.xlsx,2022.0,43.3200189773,-0.350337918181,890136.0
174,PROVENCE-ALPES-COTE D'AZUR,ALPES-MARITIMES,06083,MENTON,93.0,2086052.0,8343.0,ificom-2022.xlsx,2022.0,43.7908233727,7.49365612374,775899.0
175,ILE-DE-FRANCE,HAUTS-DE-SEINE,92023,CLAMART,333.0,2081259.0,7541.0,ificom-2022.xlsx,2022.0,48.7964306792,2.25474652922,2511153.0
176,OCCITANIE,HERAULT,34301,SETE,116.0,2075251.0,8080.0,ificom-2022.xlsx,2022.0,43.3917705831,3.64705148296,937280.0
177,ILE-DE-FRANCE,HAUTS-DE-SEINE,92026,COURBEVOIE,453.0,2073787.0,7595.0,ificom-2022.xlsx,2022.0,48.8984504771,2.25570587289,3440535.0
178,PROVENCE-ALPES-COTE D'AZUR,VAR,83061,FREJUS,149.0,2068631.0,8196.0,ificom-2022.xlsx,2022.0,43.4719558114,6.76361597424,1221204.0
179,ILE-DE-FRANCE,VAL-DE-MARNE,94028,CRETEIL,81.0,2066568.0,7757.0,ificom-2022.xlsx,2022.0,48.7837401836,2.45463530415,628317.0
180,PROVENCE-ALPES-COTE D'AZUR,VAR,83050,DRAGUIGNAN,68.0,2060808.0,8589.0,ificom-2022.xlsx,2022.0,43.5357513285,6.45436569191,584052.0
181,AUVERGNE-RHONE-ALPES,SAVOIE,73065,CHAMBERY,124.0,2058732.0,7479.0,ificom-2022.xlsx,2022.0,45.583182552,5.90903392417,927396.0
182,OCCITANIE,AUDE,11262,NARBONNE,67.0,2057986.0,8138.0,ificom-2022.xlsx,2022.0,43.1652399898,3.02023868739,545246.0
183,ILE-DE-FRANCE,HAUTS-DE-SEINE,92040,ISSY LES MOULINEAUX,504.0,2055431.0,7464.0,ificom-2022.xlsx,2022.0,48.82347434,2.26449823277,3761856.0
184,PAYS DE LA LOIRE,LOIRE-ATLANTIQUE,44215,VERTOU,78.0,2050243.0,7328.0,ificom-2022.xlsx,2022.0,47.1603732625,-1.47052291749,571584.0
185,ILE-DE-FRANCE,VAL-DE-MARNE,94016,CACHAN,61.0,2048501.0,7170.0,ificom-2022.xlsx,2022.0,48.7916121646,2.33153313164,437370.0
186,AUVERGNE-RHONE-ALPES,HAUTE-SAVOIE,74010,ANNECY,622.0,2045690.0,7767.0,ificom-2022.xlsx,2022.0,45.8906432566,6.12551773598,4831074.0
187,PROVENCE-ALPES-COTE D'AZUR,VAUCLUSE,84007,AVIGNON,100.0,2037645.0,7497.0,ificom-2022.xlsx,2022.0,43.9352448339,4.84071572505,749700.0
188,AUVERGNE-RHONE-ALPES,LOIRE,42218,SAINT ETIENNE,77.0,2037480.0,7431.0,ificom-2022.xlsx,2022.0,45.4301235512,4.37913997076,572187.0
189,ILE-DE-FRANCE,HAUTS-DE-SEINE,92002,ANTONY,311.0,2033147.0,7612.0,ificom-2022.xlsx,2022.0,48.7503412602,2.2993268102,2367332.0
190,PROVENCE-ALPES-COTE D'AZUR,BOUCHES-DU-RHONE,13005,AUBAGNE,82.0,2031608.0,7830.0,ificom-2022.xlsx,2022.0,43.2934843764,5.56331273477,642060.0
191,AUVERGNE-RHONE-ALPES,RHONE,69029,BRON,70.0,2030115.0,7342.0,ificom-2022.xlsx,2022.0,45.7344856902,4.91168159471,513940.0
192,PAYS DE LA LOIRE,LOIRE-ATLANTIQUE,44114,ORVAULT,73.0,2029909.0,7528.0,ificom-2022.xlsx,2022.0,47.2739815478,-1.62323898524,549544.0
193,ILE-DE-FRANCE,VAL-D'OISE,95555,ST GRATIEN,60.0,2026099.0,7446.0,ificom-2022.xlsx,2022.0,48.9689724948,2.28518003438,446760.0
194,ILE-DE-FRANCE,HAUTS-DE-SEINE,92032,FONTENAY AUX ROSES,94.0,2025241.0,7227.0,ificom-2022.xlsx,2022.0,48.7897301312,2.28723493557,679338.0
195,NOUVELLE-AQUITAINE,GIRONDE,33162,EYSINES,57.0,2019978.0,7732.0,ificom-2022.xlsx,2022.0,44.8797152377,-0.647899474657,440724.0
196,NOUVELLE-AQUITAINE,VIENNE,86194,POITIERS,103.0,2018790.0,7477.0,ificom-2022.xlsx,2022.0,46.5839207726,0.359947653003,770131.0
197,ILE-DE-FRANCE,HAUTS-DE-SEINE,92009,BOIS-COLOMBES,173.0,2010515.0,6849.0,ificom-2022.xlsx,2022.0,48.9153368426,2.26738552597,1184877.0
198,BRETAGNE,MORBIHAN,56260,VANNES,231.0,1986573.0,7523.0,ificom-2022.xlsx,2022.0,47.6597493766,-2.75714329498,1737813.0
199,NOUVELLE-AQUITAINE,GIRONDE,33199,GUJAN-MESTRAS,68.0,1986092.0,7480.0,ificom-2022.xlsx,2022.0,44.5940361232,-1.08427455858,508640.0
200,PROVENCE-ALPES-COTE D'AZUR,BOUCHES-DU-RHONE,13004,ARLES,81.0,1975904.0,6898.0,ificom-2022.xlsx,2022.0,43.5468692378,4.66215642574,558738.0
201,LES-HAUTS-DE-FRANCE,NORD,59009,VILLENEUVE D'ASCQ,136.0,1969385.0,6135.0,ificom-2022.xlsx,2022.0,50.6324372393,3.1535257221,834360.0
202,ILE-DE-FRANCE,SEINE-SAINT-DENIS,93048,MONTREUIL SOUS BOIS,134.0,1966861.0,7117.0,ificom-2022.xlsx,2022.0,48.8633175054,2.44816211857,953678.0
203,ILE-DE-FRANCE,HAUTS-DE-SEINE,92022,CHAVILLE,143.0,1965197.0,6836.0,ificom-2022.xlsx,2022.0,48.8076083562,2.19234061062,977548.0
204,PROVENCE-ALPES-COTE D'AZUR,VAUCLUSE,84031,CARPENTRAS,59.0,1954067.0,6840.0,ificom-2022.xlsx,2022.0,44.0593802565,5.06134844776,403560.0
205,ILE-DE-FRANCE,VAL-DE-MARNE,94038,L'HAY LES ROSES,64.0,1952700.0,7438.0,ificom-2022.xlsx,2022.0,48.7763207843,2.33772915609,476032.0
206,LES-HAUTS-DE-FRANCE,PAS-DE-CALAIS,62041,ARRAS,52.0,1940972.0,6975.0,ificom-2022.xlsx,2022.0,50.2898964997,2.76587316711,362700.0
207,PROVENCE-ALPES-COTE D'AZUR,VAR,83126,LA SEYNE SUR MER,64.0,1887283.0,6705.0,ificom-2022.xlsx,2022.0,43.0880294967,5.87089841754,429120.0
208,PROVENCE-ALPES-COTE D'AZUR,HAUTES-ALPES,05061,GAP,65.0,2268207.0,8156.0,ificom-2021.xlsx,2021.0,44.5798600596,6.06486052138,530140.0
209,PROVENCE-ALPES-COTE D'AZUR,ALPES-MARITIMES,06004,ANTIBES,430.0,2245773.0,9240.0,ificom-2021.xlsx,2021.0,43.587465146,7.10635418256,3973200.0
210,PROVENCE-ALPES-COTE D'AZUR,ALPES-MARITIMES,06027,CAGNES SUR MER,160.0,2040286.0,7844.0,ificom-2021.xlsx,2021.0,43.6715162078,7.15275703379,1255040.0
211,PROVENCE-ALPES-COTE D'AZUR,ALPES-MARITIMES,06029,CANNES,664.0,2827815.0,12414.0,ificom-2021.xlsx,2021.0,43.5526202843,7.00427592728,8242896.0
212,PROVENCE-ALPES-COTE D'AZUR,ALPES-MARITIMES,06030,LE CANNET,156.0,2485858.0,11856.0,ificom-2021.xlsx,2021.0,43.5729768613,7.00642057758,1849536.0
213,PROVENCE-ALPES-COTE D'AZUR,ALPES-MARITIMES,06069,GRASSE,125.0,2938801.0,10202.0,ificom-2021.xlsx,2021.0,43.655639428,6.93190508233,1275250.0
214,PROVENCE-ALPES-COTE D'AZUR,ALPES-MARITIMES,06079,MANDELIEU LA NAPOULE,119.0,2624613.0,15158.0,ificom-2021.xlsx,2021.0,43.5380510468,6.91808936542,1803802.0
215,PROVENCE-ALPES-COTE D'AZUR,ALPES-MARITIMES,06083,MENTON,97.0,2028443.0,6979.0,ificom-2021.xlsx,2021.0,43.7908233727,7.49365612374,676963.0
216,PROVENCE-ALPES-COTE D'AZUR,ALPES-MARITIMES,06088,NICE,1281.0,2229664.0,9401.0,ificom-2021.xlsx,2021.0,43.7119992661,7.23826889465,12042681.0
217,PROVENCE-ALPES-COTE D'AZUR,ALPES-MARITIMES,06123,SAINT LAURENT DU VAR,84.0,2259076.0,9356.0,ificom-2021.xlsx,2021.0,43.6859625772,7.18218791815,785904.0
218,PROVENCE-ALPES-COTE D'AZUR,ALPES-MARITIMES,06155,VALLAURIS,157.0,2262527.0,8849.0,ificom-2021.xlsx,2021.0,43.5766472999,7.05836612893,1389293.0
219,GRAND-EST,AUBE,10387,TROYES,52.0,2536332.0,12912.0,ificom-2021.xlsx,2021.0,48.2967099637,4.07827967525,671424.0
220,OCCITANIE,AUDE,11262,NARBONNE,61.0,2038151.0,8112.0,ificom-2021.xlsx,2021.0,43.1652399898,3.02023868739,494832.0
221,PROVENCE-ALPES-COTE D'AZUR,BOUCHES-DU-RHONE,13001,AIX EN PROVENCE,941.0,2238380.0,9219.0,ificom-2021.xlsx,2021.0,43.5360708378,5.39857444582,8675079.0
222,PROVENCE-ALPES-COTE D'AZUR,BOUCHES-DU-RHONE,13004,ARLES,77.0,1951809.0,6855.0,ificom-2021.xlsx,2021.0,43.5468692378,4.66215642574,527835.0
223,PROVENCE-ALPES-COTE D'AZUR,BOUCHES-DU-RHONE,13005,AUBAGNE,76.0,1970332.0,6919.0,ificom-2021.xlsx,2021.0,43.2934843764,5.56331273477,525844.0
224,PROVENCE-ALPES-COTE D'AZUR,BOUCHES-DU-RHONE,13028,LA CIOTAT,109.0,2132562.0,8726.0,ificom-2021.xlsx,2021.0,43.1926410861,5.61318955778,951134.0
225,PROVENCE-ALPES-COTE D'AZUR,BOUCHES-DU-RHONE,13103,SALON DE PROVENCE,64.0,2217714.0,8902.0,ificom-2021.xlsx,2021.0,43.6462885238,5.06814649576,569728.0
226,NORMANDIE,CALVADOS,14118,CAEN,213.0,2236565.0,9557.0,ificom-2021.xlsx,2021.0,49.1847936737,-0.369801713036,2035641.0
227,NOUVELLE-AQUITAINE,CHARENTE-MARITIME,17300,LA ROCHELLE,268.0,2127345.0,8278.0,ificom-2021.xlsx,2021.0,46.1620643972,-1.17465702836,2218504.0
228,NOUVELLE-AQUITAINE,CORREZE,19031,BRIVE,59.0,2850188.0,14878.0,ificom-2021.xlsx,2021.0,45.1435830664,1.51936836063,877802.0
229,BOURGOGNE-FRANCHE-COMTE,COTE-D'OR,21054,BEAUNE,52.0,2346323.0,9536.0,ificom-2021.xlsx,2021.0,47.0255189366,4.83767985985,495872.0
230,BOURGOGNE-FRANCHE-COMTE,COTE-D'OR,21231,DIJON,188.0,2198908.0,9221.0,ificom-2021.xlsx,2021.0,47.3229437965,5.03788805877,1733548.0
231,BOURGOGNE-FRANCHE-COMTE,DOUBS,25056,BESANCON,102.0,2051255.0,7830.0,ificom-2021.xlsx,2021.0,47.2553872249,6.01948696494,798660.0
232,AUVERGNE-RHONE-ALPES,DROME,26198,MONTELIMAR,53.0,2052084.0,7850.0,ificom-2021.xlsx,2021.0,44.5540845734,4.74869387765,416050.0
233,AUVERGNE-RHONE-ALPES,DROME,26362,VALENCE,68.0,2460955.0,9773.0,ificom-2021.xlsx,2021.0,44.9229811667,4.91444013136,664564.0
234,CENTRE-VAL DE LOIRE,EURE-ET-LOIR,28085,CHARTRES,86.0,2315656.0,10153.0,ificom-2021.xlsx,2021.0,48.4471464884,1.50570610616,873158.0
235,BRETAGNE,FINISTERE,29019,BREST,79.0,2452426.0,11760.0,ificom-2021.xlsx,2021.0,48.4004997828,-4.5027907853,929040.0
236,CORSE,CORSE-DU-SUD,2A004,AJACCIO,185.0,2418990.0,11216.0,ificom-2021.xlsx,2021.0,41.9347926638,8.70132275974,2074960.0
237,CORSE,HAUTE-CORSE,2B033,BASTIA,61.0,2232820.0,9719.0,ificom-2021.xlsx,2021.0,42.6864768806,9.42502133338,592859.0
238,OCCITANIE,GARD,30189,NIMES,217.0,2145679.0,8911.0,ificom-2021.xlsx,2021.0,43.844938394,4.34806796996,1933687.0
239,OCCITANIE,HAUTE-GARONNE,31555,TOULOUSE,1225.0,2254577.0,8989.0,ificom-2021.xlsx,2021.0,43.5963814303,1.43167293364,11011525.0
240,OCCITANIE,HAUTE-GARONNE,31557,TOURNEFEUILLE,66.0,2292439.0,9084.0,ificom-2021.xlsx,2021.0,43.5781918597,1.33500697752,599544.0
241,NOUVELLE-AQUITAINE,GIRONDE,33063,BORDEAUX,1707.0,2325970.0,10089.0,ificom-2021.xlsx,2021.0,44.8572445351,-0.57369678116,17221923.0
242,NOUVELLE-AQUITAINE,GIRONDE,33069,LE BOUSCAT,215.0,2451929.0,11819.0,ificom-2021.xlsx,2021.0,44.8661298323,-0.602121558626,2541085.0
243,NOUVELLE-AQUITAINE,GIRONDE,33162,EYSINES,52.0,2076615.0,8194.0,ificom-2021.xlsx,2021.0,44.8797152377,-0.647899474657,426088.0
244,NOUVELLE-AQUITAINE,GIRONDE,33192,GRADIGNAN,75.0,2371111.0,9858.0,ificom-2021.xlsx,2021.0,44.7709411201,-0.616137682116,739350.0
245,NOUVELLE-AQUITAINE,GIRONDE,33199,GUJAN-MESTRAS,53.0,2030226.0,8054.0,ificom-2021.xlsx,2021.0,44.5940361232,-1.08427455858,426862.0
246,NOUVELLE-AQUITAINE,GIRONDE,33281,MERIGNAC,165.0,2257744.0,9734.0,ificom-2021.xlsx,2021.0,44.8322953289,-0.681733084891,1606110.0
247,NOUVELLE-AQUITAINE,GIRONDE,33318,PESSAC,121.0,2198055.0,8304.0,ificom-2021.xlsx,2021.0,44.7915990521,-0.676303166277,1004784.0
248,NOUVELLE-AQUITAINE,GIRONDE,33449,SAINT-MEDARD-EN-JALLES,51.0,2251278.0,8852.0,ificom-2021.xlsx,2021.0,44.8832620816,-0.784239883546,451452.0
249,NOUVELLE-AQUITAINE,GIRONDE,33522,TALENCE,96.0,2153829.0,8813.0,ificom-2021.xlsx,2021.0,44.8060817507,-0.591124592873,846048.0
250,NOUVELLE-AQUITAINE,GIRONDE,33529,LA TESTE DE BUCH,234.0,2280975.0,9896.0,ificom-2021.xlsx,2021.0,44.5561823053,-1.17530826791,2315664.0
251,OCCITANIE,HERAULT,34003,AGDE,64.0,2175962.0,8893.0,ificom-2021.xlsx,2021.0,43.309129116,3.48447903133,569152.0
252,OCCITANIE,HERAULT,34032,BEZIERS,78.0,2254989.0,10109.0,ificom-2021.xlsx,2021.0,43.3475883319,3.23076754164,788502.0
253,OCCITANIE,HERAULT,34057,CASTELNAU LE LEZ,102.0,2289629.0,11361.0,ificom-2021.xlsx,2021.0,43.6380218809,3.91265416028,1158822.0
254,OCCITANIE,HERAULT,34172,MONTPELLIER,470.0,2149149.0,8448.0,ificom-2021.xlsx,2021.0,43.6134409138,3.86851657896,3970560.0
255,OCCITANIE,HERAULT,34301,SETE,97.0,2052067.0,8022.0,ificom-2021.xlsx,2021.0,43.3917705831,3.64705148296,778134.0
256,BRETAGNE,ILLE-ET-VILAINE,35238,RENNES,572.0,2462023.0,11004.0,ificom-2021.xlsx,2021.0,48.1119791219,-1.68186449144,6294288.0
257,BRETAGNE,ILLE-ET-VILAINE,35288,SAINT MALO,197.0,2218192.0,9596.0,ificom-2021.xlsx,2021.0,48.6400443482,-1.98060627256,1890412.0
258,CENTRE-VAL DE LOIRE,INDRE-ET-LOIRE,37261,TOURS,203.0,2128313.0,8278.0,ificom-2021.xlsx,2021.0,47.3986382281,0.696526376417,1680434.0
259,AUVERGNE-RHONE-ALPES,ISERE,38185,GRENOBLE,174.0,2224496.0,8388.0,ificom-2021.xlsx,2021.0,45.1821215167,5.72133051752,1459512.0
260,AUVERGNE-RHONE-ALPES,LOIRE,42218,SAINT ETIENNE,78.0,2041352.0,7594.0,ificom-2021.xlsx,2021.0,45.4301235512,4.37913997076,592332.0
261,PAYS DE LA LOIRE,LOIRE-ATLANTIQUE,44109,NANTES,985.0,2263115.0,9294.0,ificom-2021.xlsx,2021.0,47.2316356767,-1.54831008605,9154590.0
262,PAYS DE LA LOIRE,LOIRE-ATLANTIQUE,44114,ORVAULT,62.0,2021138.0,7518.0,ificom-2021.xlsx,2021.0,47.2739815478,-1.62323898524,466116.0
263,PAYS DE LA LOIRE,LOIRE-ATLANTIQUE,44184,ST NAZAIRE,62.0,2160818.0,8746.0,ificom-2021.xlsx,2021.0,47.2802857028,-2.25379927249,542252.0
264,PAYS DE LA LOIRE,LOIRE-ATLANTIQUE,44215,VERTOU,71.0,2052008.0,7203.0,ificom-2021.xlsx,2021.0,47.1603732625,-1.47052291749,511413.0
265,CENTRE-VAL DE LOIRE,LOIRET,45232,OLIVET,51.0,2350296.0,10761.0,ificom-2021.xlsx,2021.0,47.8546997503,1.88823884753,548811.0
266,CENTRE-VAL DE LOIRE,LOIRET,45234,ORLEANS,154.0,2278514.0,9334.0,ificom-2021.xlsx,2021.0,47.8828634214,1.91610357477,1437436.0
267,PAYS DE LA LOIRE,MAINE-ET-LOIRE,49007,ANGERS,177.0,2000162.0,7227.0,ificom-2021.xlsx,2021.0,47.476837416,-0.556125995444,1279179.0
268,GRAND-EST,MARNE,51454,REIMS,258.0,2157480.0,8544.0,ificom-2021.xlsx,2021.0,49.2514906066,4.0402302322,2204352.0
269,PAYS DE LA LOIRE,MAYENNE,53130,LAVAL,71.0,2347022.0,9974.0,ificom-2021.xlsx,2021.0,48.0608565468,-0.766005687142,708154.0
270,GRAND-EST,MEURTHE-ET-MOSELLE,54395,NANCY,196.0,2394349.0,9595.0,ificom-2021.xlsx,2021.0,48.6901995499,6.17588254434,1880620.0
271,BRETAGNE,MORBIHAN,56260,VANNES,188.0,2021611.0,7677.0,ificom-2021.xlsx,2021.0,47.6597493766,-2.75714329498,1443276.0
272,GRAND-EST,MOSELLE,57463,METZ,131.0,2288340.0,9985.0,ificom-2021.xlsx,2021.0,49.1081133279,6.1955245421,1308035.0
273,GRAND-EST,MOSELLE,57672,THIONVILLE,62.0,2034484.0,7826.0,ificom-2021.xlsx,2021.0,49.3759716201,6.12928314217,485212.0
274,LES-HAUTS-DE-FRANCE,NORD,59009,VILLENEUVE D'ASCQ,119.0,1943706.0,5461.0,ificom-2021.xlsx,2021.0,50.6324372393,3.1535257221,649859.0
275,LES-HAUTS-DE-FRANCE,NORD,59163,CROIX,95.0,2345519.0,8725.0,ificom-2021.xlsx,2021.0,50.6740689994,3.15464041723,828875.0
276,LES-HAUTS-DE-FRANCE,NORD,59183,DUNKERQUE,65.0,2033788.0,7795.0,ificom-2021.xlsx,2021.0,51.0307229078,2.33752414095,506675.0
277,LES-HAUTS-DE-FRANCE,NORD,59328,LAMBERSART,89.0,2424694.0,9942.0,ificom-2021.xlsx,2021.0,50.6522053005,3.02491174276,884838.0
278,LES-HAUTS-DE-FRANCE,NORD,59350,LILLE,325.0,2256665.0,8556.0,ificom-2021.xlsx,2021.0,50.6317183168,3.04783272312,2780700.0
279,LES-HAUTS-DE-FRANCE,NORD,59368,LA MADELEINE,58.0,2391066.0,11929.0,ificom-2021.xlsx,2021.0,50.6548883138,3.06963722507,691882.0
280,LES-HAUTS-DE-FRANCE,NORD,59378,MARCQ EN BAROEUL,248.0,2361357.0,8036.0,ificom-2021.xlsx,2021.0,50.6753348557,3.10093583816,1992928.0
281,LES-HAUTS-DE-FRANCE,NORD,59646,WASQUEHAL,75.0,2120453.0,7619.0,ificom-2021.xlsx,2021.0,50.6750984751,3.12858017096,571425.0
282,LES-HAUTS-DE-FRANCE,OISE,60057,BEAUVAIS,61.0,3129108.0,13607.0,ificom-2021.xlsx,2021.0,49.4365523321,2.08616123661,830027.0
283,LES-HAUTS-DE-FRANCE,OISE,60159,COMPIEGNE,104.0,2808925.0,12020.0,ificom-2021.xlsx,2021.0,49.3990601478,2.85317249363,1250080.0
284,LES-HAUTS-DE-FRANCE,PAS-DE-CALAIS,62041,ARRAS,51.0,1884753.0,6321.0,ificom-2021.xlsx,2021.0,50.2898964997,2.76587316711,322371.0
285,AUVERGNE-RHONE-ALPES,PUY-DE-DOME,63113,CLERMONT-FERRAND,115.0,2001395.0,7452.0,ificom-2021.xlsx,2021.0,45.7856492991,3.11554542903,856980.0
286,NOUVELLE-AQUITAINE,PYRENEES-ATLANTIQUES,64024,ANGLET,252.0,2152651.0,8967.0,ificom-2021.xlsx,2021.0,43.4917846595,-1.51623373371,2259684.0
287,NOUVELLE-AQUITAINE,PYRENEES-ATLANTIQUES,64102,BAYONNE,133.0,2188455.0,8537.0,ificom-2021.xlsx,2021.0,43.4922254016,-1.46607674358,1135421.0
288,NOUVELLE-AQUITAINE,PYRENEES-ATLANTIQUES,64122,BIARRITZ,332.0,2262827.0,9104.0,ificom-2021.xlsx,2021.0,43.4695847227,-1.55309857519,3022528.0
289,NOUVELLE-AQUITAINE,PYRENEES-ATLANTIQUES,64445,PAU,109.0,2012327.0,7221.0,ificom-2021.xlsx,2021.0,43.3200189773,-0.350337918181,787089.0
290,OCCITANIE,PYRENEES-ORIENTALES,66136,PERPIGNAN,131.0,2199415.0,9303.0,ificom-2021.xlsx,2021.0,42.6965954131,2.89936953979,1218693.0
291,GRAND-EST,BAS-RHIN,67482,STRASBOURG,711.0,2376319.0,9950.0,ificom-2021.xlsx,2021.0,48.5712679849,7.76752679517,7074450.0
292,GRAND-EST,HAUT-RHIN,68066,COLMAR,91.0,2400864.0,11252.0,ificom-2021.xlsx,2021.0,48.1099405789,7.38468690323,1023932.0
293,GRAND-EST,HAUT-RHIN,68224,MULHOUSE,84.0,2275915.0,9669.0,ificom-2021.xlsx,2021.0,47.749163303,7.32570047509,812196.0
294,AUVERGNE-RHONE-ALPES,RHONE,69029,BRON,66.0,2042233.0,7487.0,ificom-2021.xlsx,2021.0,45.7344856902,4.91168159471,494142.0
295,AUVERGNE-RHONE-ALPES,RHONE,69034,CALUIRE ET CUIRE,232.0,2407934.0,10606.0,ificom-2021.xlsx,2021.0,45.7974053648,4.85124857101,2460592.0
296,AUVERGNE-RHONE-ALPES,RHONE,69202,STE FOY LES LYON,189.0,2252613.0,9028.0,ificom-2021.xlsx,2021.0,45.7359781395,4.79343173908,1706292.0
297,AUVERGNE-RHONE-ALPES,RHONE,69204,SAINT-GENIS-LAVAL,68.0,2191812.0,7998.0,ificom-2021.xlsx,2021.0,45.6936777293,4.78919028453,543864.0
298,AUVERGNE-RHONE-ALPES,RHONE,69244,TASSIN-LA-DEMI-LUNE,126.0,2191385.0,8551.0,ificom-2021.xlsx,2021.0,45.7628681769,4.75540595543,1077426.0
299,AUVERGNE-RHONE-ALPES,RHONE,69266,VILLEURBANNE,96.0,2076969.0,7655.0,ificom-2021.xlsx,2021.0,45.7707704179,4.88845817426,734880.0
300,PAYS DE LA LOIRE,SARTHE,72181,LE MANS,163.0,2218842.0,9019.0,ificom-2021.xlsx,2021.0,47.9885256718,0.200030493539,1470097.0
301,AUVERGNE-RHONE-ALPES,SAVOIE,73008,AIX-LES-BAINS,78.0,1997463.0,7330.0,ificom-2021.xlsx,2021.0,45.6978541675,5.90388626955,571740.0
302,AUVERGNE-RHONE-ALPES,SAVOIE,73065,CHAMBERY,117.0,1999840.0,6548.0,ificom-2021.xlsx,2021.0,45.583182552,5.90903392417,766116.0
303,AUVERGNE-RHONE-ALPES,HAUTE-SAVOIE,74010,ANNECY,552.0,2033965.0,7710.0,ificom-2021.xlsx,2021.0,45.8906432566,6.12551773598,4255920.0
304,AUVERGNE-RHONE-ALPES,HAUTE-SAVOIE,74281,THONON-LES-BAINS,94.0,2182223.0,9198.0,ificom-2021.xlsx,2021.0,46.3704258049,6.48194336071,864612.0
305,ILE-DE-FRANCE,PARIS,75101,Paris 1er,572.0,2847199.0,13625.0,ificom-2021.xlsx,2021.0,48.8626304852,2.33629344655,7793500.0
306,ILE-DE-FRANCE,PARIS,75102,Paris 2e,344.0,2357418.0,10614.0,ificom-2021.xlsx,2021.0,48.8679033789,2.34410716666,3651216.0
307,ILE-DE-FRANCE,PARIS,75103,Paris 3e,848.0,2601499.0,12215.0,ificom-2021.xlsx,2021.0,48.8630541318,2.35936105897,10358320.0
308,ILE-DE-FRANCE,PARIS,75104,Paris 4e,924.0,2813386.0,14092.0,ificom-2021.xlsx,2021.0,48.854228282,2.35736193814,13021008.0
309,ILE-DE-FRANCE,PARIS,75105,Paris 5e,1721.0,2490447.0,11052.0,ificom-2021.xlsx,2021.0,48.8445086596,2.34985938556,19020492.0
310,ILE-DE-FRANCE,PARIS,75106,Paris 6e,2816.0,2969480.0,14784.0,ificom-2021.xlsx,2021.0,48.8489680919,2.33267089859,41631744.0
311,ILE-DE-FRANCE,PARIS,75107,Paris 7e,4318.0,3273652.0,17507.0,ificom-2021.xlsx,2021.0,48.8560825982,2.31243868773,75595226.0
312,ILE-DE-FRANCE,PARIS,75108,Paris 8e,2268.0,2901255.0,14124.0,ificom-2021.xlsx,2021.0,48.8725272666,2.31258256042,32033232.0
313,ILE-DE-FRANCE,PARIS,75109,Paris 9e,1321.0,2252104.0,8893.0,ificom-2021.xlsx,2021.0,48.8768961624,2.33746024139,11747653.0
314,ILE-DE-FRANCE,PARIS,75110,Paris 10e,637.0,2178027.0,8359.0,ificom-2021.xlsx,2021.0,48.8760285569,2.36111290456,5324683.0
315,ILE-DE-FRANCE,PARIS,75111,Paris 11e,1181.0,2247914.0,8977.0,ificom-2021.xlsx,2021.0,48.8594154976,2.37874106024,10601837.0
316,ILE-DE-FRANCE,PARIS,75112,Paris 12e,1202.0,2232977.0,8928.0,ificom-2021.xlsx,2021.0,48.8351562307,2.41980703497,10731456.0
317,ILE-DE-FRANCE,PARIS,75113,Paris 13e,1074.0,2174380.0,8576.0,ificom-2021.xlsx,2021.0,48.8287176845,2.36246822852,9210624.0
318,ILE-DE-FRANCE,PARIS,75114,Paris 14e,1897.0,2377354.0,10282.0,ificom-2021.xlsx,2021.0,48.8289932116,2.32710088326,19504954.0
319,ILE-DE-FRANCE,PARIS,75115,Paris 15e,3423.0,2276440.0,9305.0,ificom-2021.xlsx,2021.0,48.8401554186,2.29355937244,31851015.0
320,ILE-DE-FRANCE,PARIS,75116,Paris 16e,9460.0,2898599.0,13790.0,ificom-2021.xlsx,2021.0,48.8603987604,2.2620995594,130453400.0
321,ILE-DE-FRANCE,PARIS,75117,Paris 17e,3933.0,2474270.0,10393.0,ificom-2021.xlsx,2021.0,48.8873371665,2.30748555949,40875669.0
322,ILE-DE-FRANCE,PARIS,75118,Paris 18e,875.0,2521034.0,11273.0,ificom-2021.xlsx,2021.0,48.8927350746,2.34871193387,9863875.0
323,ILE-DE-FRANCE,PARIS,75119,Paris 19e,541.0,2275077.0,8813.0,ificom-2021.xlsx,2021.0,48.886868623,2.38469432787,4767833.0
324,ILE-DE-FRANCE,PARIS,75120,Paris 20e,556.0,2222816.0,8489.0,ificom-2021.xlsx,2021.0,48.8631867774,2.40081982673,4719884.0
325,NORMANDIE,SEINE-MARITIME,76351,LE HAVRE,112.0,2192983.0,9209.0,ificom-2021.xlsx,2021.0,49.498452502,0.140153719153,1031408.0
326,NORMANDIE,SEINE-MARITIME,76540,ROUEN,166.0,2168910.0,8814.0,ificom-2021.xlsx,2021.0,49.4413460103,1.09256784278,1463124.0
327,ILE-DE-FRANCE,SEINE-ET-MARNE,77284,MEAUX,59.0,2080362.0,7457.0,ificom-2021.xlsx,2021.0,48.9570625667,2.90003097245,439963.0
328,ILE-DE-FRANCE,YVELINES,78126,LA CELLE-SAINT-CLOUD,205.0,2081858.0,7169.0,ificom-2021.xlsx,2021.0,48.8469487124,2.13519126228,1469645.0
329,ILE-DE-FRANCE,YVELINES,78146,CHATOU,242.0,2093601.0,7388.0,ificom-2021.xlsx,2021.0,48.8965574645,2.15393458329,1787896.0
330,ILE-DE-FRANCE,YVELINES,78158,LE CHESNAY-ROCQUENCOURT,355.0,2140067.0,7867.0,ificom-2021.xlsx,2021.0,48.8272397742,2.13014908209,2792785.0
331,ILE-DE-FRANCE,YVELINES,78358,MAISONS-LAFFITTE,257.0,2136473.0,8198.0,ificom-2021.xlsx,2021.0,48.9523369002,2.15161594901,2106886.0
332,ILE-DE-FRANCE,YVELINES,78517,RAMBOUILLET,82.0,2108517.0,7890.0,ificom-2021.xlsx,2021.0,48.6539051954,1.82652871851,646980.0
333,ILE-DE-FRANCE,YVELINES,78551,SAINT-GERMAIN-EN-LAYE,651.0,2213228.0,8133.0,ificom-2021.xlsx,2021.0,48.9407041394,2.09870929375,5294583.0
334,ILE-DE-FRANCE,YVELINES,78646,VERSAILLES,1366.0,2294023.0,9001.0,ificom-2021.xlsx,2021.0,48.8025669671,2.11789297191,12295366.0
335,NOUVELLE-AQUITAINE,DEUX-SEVRES,79191,NIORT,54.0,2211150.0,9419.0,ificom-2021.xlsx,2021.0,46.328260242,-0.465353019369,508626.0
336,LES-HAUTS-DE-FRANCE,SOMME,80021,AMIENS,167.0,2154557.0,8469.0,ificom-2021.xlsx,2021.0,49.9009532186,2.29007445539,1414323.0
337,OCCITANIE,TARN,81004,ALBI,65.0,2024403.0,7282.0,ificom-2021.xlsx,2021.0,43.9258213622,2.14686328555,473330.0
338,OCCITANIE,TARN-ET-GARONNE,82121,MONTAUBAN,77.0,1976514.0,7066.0,ificom-2021.xlsx,2021.0,44.0222594578,1.36408636501,544082.0
339,PROVENCE-ALPES-COTE D'AZUR,VAR,83050,DRAGUIGNAN,70.0,2053548.0,8133.0,ificom-2021.xlsx,2021.0,43.5357513285,6.45436569191,569310.0
340,PROVENCE-ALPES-COTE D'AZUR,VAR,83061,FREJUS,138.0,1993351.0,7522.0,ificom-2021.xlsx,2021.0,43.4719558114,6.76361597424,1038036.0
341,PROVENCE-ALPES-COTE D'AZUR,VAR,83069,HYERES,237.0,2117763.0,7902.0,ificom-2021.xlsx,2021.0,43.1018713534,6.18898508469,1872774.0
342,PROVENCE-ALPES-COTE D'AZUR,VAR,83118,SAINT-RAPHAEL,325.0,2178550.0,8901.0,ificom-2021.xlsx,2021.0,43.4574625431,6.84734210398,2892825.0
343,PROVENCE-ALPES-COTE D'AZUR,VAR,83126,LA SEYNE SUR MER,61.0,1858217.0,6738.0,ificom-2021.xlsx,2021.0,43.0880294967,5.87089841754,411018.0
344,PROVENCE-ALPES-COTE D'AZUR,VAR,83129,SIX-FOURS-LES-PLAGES,120.0,2086954.0,7992.0,ificom-2021.xlsx,2021.0,43.086818602,5.82924464931,959040.0
345,PROVENCE-ALPES-COTE D'AZUR,VAR,83137,TOULON,249.0,2165575.0,8717.0,ificom-2021.xlsx,2021.0,43.1361589728,5.93239634249,2170533.0
346,PROVENCE-ALPES-COTE D'AZUR,VAUCLUSE,84007,AVIGNON,97.0,1994180.0,7039.0,ificom-2021.xlsx,2021.0,43.9352448339,4.84071572505,682783.0
347,PROVENCE-ALPES-COTE D'AZUR,VAUCLUSE,84031,CARPENTRAS,53.0,2027157.0,7295.0,ificom-2021.xlsx,2021.0,44.0593802565,5.06134844776,386635.0
348,PAYS DE LA LOIRE,VENDEE,85194,LES SABLES D'OLONNE,151.0,2188586.0,9142.0,ificom-2021.xlsx,2021.0,46.5007612799,-1.79255128677,1380442.0
349,NOUVELLE-AQUITAINE,VIENNE,86194,POITIERS,99.0,1987967.0,7268.0,ificom-2021.xlsx,2021.0,46.5839207726,0.359947653003,719532.0
350,NOUVELLE-AQUITAINE,HAUTE-VIENNE,87085,LIMOGES,138.0,2373323.0,11236.0,ificom-2021.xlsx,2021.0,45.8542549589,1.2487579024,1550568.0
351,ILE-DE-FRANCE,ESSONNE,91114,BRUNOY,59.0,2349602.0,11331.0,ificom-2021.xlsx,2021.0,48.6964396294,2.50394753271,668529.0
352,ILE-DE-FRANCE,ESSONNE,91272,GIF SUR YVETTE,105.0,2076096.0,7609.0,ificom-2021.xlsx,2021.0,48.6988273634,2.12788365005,798945.0
353,ILE-DE-FRANCE,ESSONNE,91421,MONTGERON,58.0,2314293.0,10561.0,ificom-2021.xlsx,2021.0,48.6951531801,2.46249881778,612538.0
354,ILE-DE-FRANCE,ESSONNE,91477,PALAISEAU,65.0,2930254.0,10310.0,ificom-2021.xlsx,2021.0,48.7146765876,2.22881488083,670150.0
355,ILE-DE-FRANCE,HAUTS-DE-SEINE,92002,ANTONY,289.0,2005014.0,7384.0,ificom-2021.xlsx,2021.0,48.7503412602,2.2993268102,2133976.0
356,ILE-DE-FRANCE,HAUTS-DE-SEINE,92004,ASNIERES,347.0,2237275.0,8847.0,ificom-2021.xlsx,2021.0,48.9153530123,2.2880384663,3069909.0
357,ILE-DE-FRANCE,HAUTS-DE-SEINE,92009,BOIS-COLOMBES,152.0,2026579.0,7022.0,ificom-2021.xlsx,2021.0,48.9153368426,2.26738552597,1067344.0
358,ILE-DE-FRANCE,HAUTS-DE-SEINE,92012,BOULOGNE BILLANCOURT,1995.0,2298803.0,9235.0,ificom-2021.xlsx,2021.0,48.8365843138,2.23913599058,18423825.0
359,ILE-DE-FRANCE,HAUTS-DE-SEINE,92014,BOURG LA REINE,181.0,2295596.0,9400.0,ificom-2021.xlsx,2021.0,48.7799073627,2.31643010763,1701400.0
360,ILE-DE-FRANCE,HAUTS-DE-SEINE,92019,CHATENAY MALABRY,114.0,2125800.0,8491.0,ificom-2021.xlsx,2021.0,48.7681690197,2.26282598525,967974.0
361,ILE-DE-FRANCE,HAUTS-DE-SEINE,92020,CHATILLON,99.0,2212116.0,9699.0,ificom-2021.xlsx,2021.0,48.8034091756,2.28799131883,960201.0
362,ILE-DE-FRANCE,HAUTS-DE-SEINE,92022,CHAVILLE,118.0,1956542.0,6861.0,ificom-2021.xlsx,2021.0,48.8076083562,2.19234061062,809598.0
363,ILE-DE-FRANCE,HAUTS-DE-SEINE,92023,CLAMART,294.0,2069916.0,7547.0,ificom-2021.xlsx,2021.0,48.7964306792,2.25474652922,2218818.0
364,ILE-DE-FRANCE,HAUTS-DE-SEINE,92024,CLICHY,59.0,2274025.0,9329.0,ificom-2021.xlsx,2021.0,48.9035359139,2.30575230452,550411.0
365,ILE-DE-FRANCE,HAUTS-DE-SEINE,92025,COLOMBES,229.0,2045460.0,7322.0,ificom-2021.xlsx,2021.0,48.9225179147,2.24675160629,1676738.0
366,ILE-DE-FRANCE,HAUTS-DE-SEINE,92026,COURBEVOIE,418.0,2076787.0,7699.0,ificom-2021.xlsx,2021.0,48.8984504771,2.25570587289,3218182.0
367,ILE-DE-FRANCE,HAUTS-DE-SEINE,92032,FONTENAY AUX ROSES,89.0,2033532.0,7491.0,ificom-2021.xlsx,2021.0,48.7897301312,2.28723493557,666699.0
368,ILE-DE-FRANCE,HAUTS-DE-SEINE,92035,LA GARENNE COLOMBES,178.0,2181441.0,8796.0,ificom-2021.xlsx,2021.0,48.9067577111,2.24464604084,1565688.0
369,ILE-DE-FRANCE,HAUTS-DE-SEINE,92040,ISSY LES MOULINEAUX,449.0,2058724.0,7522.0,ificom-2021.xlsx,2021.0,48.82347434,2.26449823277,3377378.0
370,ILE-DE-FRANCE,HAUTS-DE-SEINE,92044,LEVALLOIS-PERRET,674.0,2337482.0,9485.0,ificom-2021.xlsx,2021.0,48.895071672,2.28688268127,6392890.0
371,ILE-DE-FRANCE,HAUTS-DE-SEINE,92046,MALAKOFF,80.0,2330760.0,9330.0,ificom-2021.xlsx,2021.0,48.8169695977,2.29693599517,746400.0
372,ILE-DE-FRANCE,HAUTS-DE-SEINE,92048,MEUDON,412.0,2105975.0,7404.0,ificom-2021.xlsx,2021.0,48.8037275796,2.22696287829,3050448.0
373,ILE-DE-FRANCE,HAUTS-DE-SEINE,92049,MONTROUGE,221.0,2166077.0,9359.0,ificom-2021.xlsx,2021.0,48.8153032159,2.31648921432,2068339.0
374,ILE-DE-FRANCE,HAUTS-DE-SEINE,92050,NANTERRE,100.0,2084585.0,8144.0,ificom-2021.xlsx,2021.0,48.8960701282,2.20671346353,814400.0
375,ILE-DE-FRANCE,HAUTS-DE-SEINE,92051,NEUILLY SUR SEINE,3713.0,2863305.0,13507.0,ificom-2021.xlsx,2021.0,48.8853719688,2.26642584746,50151491.0
376,ILE-DE-FRANCE,HAUTS-DE-SEINE,92060,LE PLESSIS ROBINSON,71.0,2219919.0,8732.0,ificom-2021.xlsx,2021.0,48.7804383642,2.26064286011,619972.0
377,ILE-DE-FRANCE,HAUTS-DE-SEINE,92062,PUTEAUX,143.0,2128067.0,8470.0,ificom-2021.xlsx,2021.0,48.8837094969,2.23834178314,1211210.0
378,ILE-DE-FRANCE,HAUTS-DE-SEINE,92063,RUEIL MALMAISON,734.0,2193654.0,8267.0,ificom-2021.xlsx,2021.0,48.8691897371,2.1773406315,6067978.0
379,ILE-DE-FRANCE,HAUTS-DE-SEINE,92064,SAINT CLOUD,659.0,2414712.0,10438.0,ificom-2021.xlsx,2021.0,48.8428741034,2.20864570316,6878642.0
380,ILE-DE-FRANCE,HAUTS-DE-SEINE,92072,SEVRES,298.0,2068322.0,7585.0,ificom-2021.xlsx,2021.0,48.821476509,2.21052297438,2260330.0
381,ILE-DE-FRANCE,HAUTS-DE-SEINE,92073,SURESNES,290.0,2057632.0,7451.0,ificom-2021.xlsx,2021.0,48.8698479132,2.21965517625,2160790.0
382,ILE-DE-FRANCE,HAUTS-DE-SEINE,92075,VANVES,153.0,2070197.0,7700.0,ificom-2021.xlsx,2021.0,48.8215227089,2.28739490768,1178100.0
383,ILE-DE-FRANCE,SEINE-SAINT-DENIS,93005,AULNAY SOUS BOIS,53.0,2137777.0,8586.0,ificom-2021.xlsx,2021.0,48.9458384367,2.49329041687,455058.0
384,ILE-DE-FRANCE,SEINE-SAINT-DENIS,93045,LES LILAS,53.0,1939892.0,6790.0,ificom-2021.xlsx,2021.0,48.8819208939,2.419667821,359870.0
385,ILE-DE-FRANCE,SEINE-SAINT-DENIS,93048,MONTREUIL SOUS BOIS,115.0,2006194.0,7331.0,ificom-2021.xlsx,2021.0,48.8633175054,2.44816211857,843065.0
386,ILE-DE-FRANCE,SEINE-SAINT-DENIS,93051,NOISY LE GRAND,60.0,2322390.0,10276.0,ificom-2021.xlsx,2021.0,48.8361825401,2.56443736814,616560.0
387,ILE-DE-FRANCE,SEINE-SAINT-DENIS,93077,VILLEMOMBLE,53.0,2305022.0,9791.0,ificom-2021.xlsx,2021.0,48.8848370021,2.50893406035,518923.0
388,ILE-DE-FRANCE,VAL-DE-MARNE,94016,CACHAN,60.0,2015517.0,7102.0,ificom-2021.xlsx,2021.0,48.7916121646,2.33153313164,426120.0
389,ILE-DE-FRANCE,VAL-DE-MARNE,94017,CHAMPIGNY SUR MARNE,70.0,2128889.0,8654.0,ificom-2021.xlsx,2021.0,48.817254364,2.51709815257,605780.0
390,ILE-DE-FRANCE,VAL-DE-MARNE,94018,CHARENTON LE PONT,228.0,2152178.0,8343.0,ificom-2021.xlsx,2021.0,48.8228084978,2.40760915477,1902204.0
391,ILE-DE-FRANCE,VAL-DE-MARNE,94028,CRETEIL,73.0,2051952.0,7768.0,ificom-2021.xlsx,2021.0,48.7837401836,2.45463530415,567064.0
392,ILE-DE-FRANCE,VAL-DE-MARNE,94033,FONTENAY SOUS BOIS,275.0,2350111.0,9238.0,ificom-2021.xlsx,2021.0,48.8511046382,2.47395409774,2540450.0
393,ILE-DE-FRANCE,VAL-DE-MARNE,94038,L'HAY LES ROSES,61.0,1966281.0,7305.0,ificom-2021.xlsx,2021.0,48.7763207843,2.33772915609,445605.0
394,ILE-DE-FRANCE,VAL-DE-MARNE,94046,MAISONS-ALFORT,126.0,2146757.0,8447.0,ificom-2021.xlsx,2021.0,48.8063923267,2.43818248906,1064322.0
395,ILE-DE-FRANCE,VAL-DE-MARNE,94052,NOGENT SUR MARNE,313.0,2945152.0,9252.0,ificom-2021.xlsx,2021.0,48.8366634713,2.48166741533,2895876.0
396,ILE-DE-FRANCE,VAL-DE-MARNE,94058,LE PERREUX SUR MARNE,195.0,2162983.0,8636.0,ificom-2021.xlsx,2021.0,48.8423952383,2.50406848573,1684020.0
397,ILE-DE-FRANCE,VAL-DE-MARNE,94067,SAINT MANDE,436.0,2466345.0,11091.0,ificom-2021.xlsx,2021.0,48.842440243,2.4192191088,4835676.0
398,ILE-DE-FRANCE,VAL-DE-MARNE,94068,SAINT MAUR DES FOSSES,744.0,2226866.0,9098.0,ificom-2021.xlsx,2021.0,48.7990677797,2.49386450452,6768912.0
399,ILE-DE-FRANCE,VAL-DE-MARNE,94071,SUCY EN BRIE,66.0,2030079.0,7283.0,ificom-2021.xlsx,2021.0,48.7656456593,2.5330560803,480678.0
400,ILE-DE-FRANCE,VAL-DE-MARNE,94080,VINCENNES,470.0,2151686.0,8030.0,ificom-2021.xlsx,2021.0,48.8473732045,2.43798650741,3774100.0
401,ILE-DE-FRANCE,VAL-DE-MARNE,94081,VITRY SUR SEINE,51.0,2111767.0,8756.0,ificom-2021.xlsx,2021.0,48.7882828307,2.39412680533,446556.0
402,ILE-DE-FRANCE,VAL-D'OISE,95428,MONTMORENCY,122.0,2405212.0,10699.0,ificom-2021.xlsx,2021.0,48.9918643363,2.32119797848,1305278.0
403,ILE-DE-FRANCE,VAL-D'OISE,95555,ST GRATIEN,52.0,2101699.0,8347.0,ificom-2021.xlsx,2021.0,48.9689724948,2.28518003438,434044.0
404,LA REUNION,LA REUNION,97411,SAINT DENIS,292.0,2488467.0,11464.0,ificom-2021.xlsx,2021.0,-20.9329708192,55.446867167,3347488.0
405,LA REUNION,LA REUNION,97415,SAINT PAUL,186.0,2207109.0,9516.0,ificom-2021.xlsx,2021.0,-21.0445317522,55.3223334298,1769976.0
406,LA REUNION,LA REUNION,97416,SAINT PIERRE,115.0,2437165.0,11334.0,ificom-2021.xlsx,2021.0,-21.3123242427,55.4936155164,1303410.0
407,LA REUNION,LA REUNION,97422,TAMPON,100.0,2115447.0,8301.0,ificom-2021.xlsx,2021.0,-21.223274585,55.5584875266,830100.0
408,AUVERGNE-RHONE-ALPES,DROME,26362,VALENCE,61.0,2405157.0,9202.0,ificom-2020.xlsx,2020.0,44.9229811667,4.91444013136,561322.0
409,AUVERGNE-RHONE-ALPES,HAUTE-SAVOIE,74010,ANNECY,507.0,2005704.9999999998,7509.0,ificom-2020.xlsx,2020.0,45.8906432566,6.12551773598,3807063.0
410,AUVERGNE-RHONE-ALPES,HAUTE-SAVOIE,74281,THONON-LES-BAINS,90.0,2140392.0,8866.0,ificom-2020.xlsx,2020.0,46.3704258049,6.48194336071,797940.0
411,AUVERGNE-RHONE-ALPES,ISERE,38185,GRENOBLE,172.0,2157148.0,8816.0,ificom-2020.xlsx,2020.0,45.1821215167,5.72133051752,1516352.0
412,AUVERGNE-RHONE-ALPES,LOIRE,42218,SAINT ETIENNE,78.0,1888188.0,6107.0,ificom-2020.xlsx,2020.0,45.4301235512,4.37913997076,476346.0
413,AUVERGNE-RHONE-ALPES,PUY-DE-DOME,63113,CLERMONT-FERRAND,114.0,1955280.0,6836.0,ificom-2020.xlsx,2020.0,45.7856492991,3.11554542903,779304.0
414,AUVERGNE-RHONE-ALPES,RHONE,69029,BRON,63.0,1977913.0,7230.0,ificom-2020.xlsx,2020.0,45.7344856902,4.91168159471,455490.0
415,AUVERGNE-RHONE-ALPES,RHONE,69034,CALUIRE ET CUIRE,214.0,2267262.0,9309.0,ificom-2020.xlsx,2020.0,45.7974053648,4.85124857101,1992126.0
416,AUVERGNE-RHONE-ALPES,RHONE,69202,STE FOY LES LYON,170.0,2285840.0,9486.0,ificom-2020.xlsx,2020.0,45.7359781395,4.79343173908,1612620.0
417,AUVERGNE-RHONE-ALPES,RHONE,69204,SAINT-GENIS-LAVAL,63.0,2131247.0,7620.0,ificom-2020.xlsx,2020.0,45.6936777293,4.78919028453,480060.0
418,AUVERGNE-RHONE-ALPES,RHONE,69244,TASSIN-LA-DEMI-LUNE,108.0,2151524.0,7976.0,ificom-2020.xlsx,2020.0,45.7628681769,4.75540595543,861408.0
419,AUVERGNE-RHONE-ALPES,RHONE,69266,VILLEURBANNE,89.0,2047425.0,7667.0,ificom-2020.xlsx,2020.0,45.7707704179,4.88845817426,682363.0
420,AUVERGNE-RHONE-ALPES,SAVOIE,73008,AIX-LES-BAINS,67.0,2052633.0000000002,7639.0,ificom-2020.xlsx,2020.0,45.6978541675,5.90388626955,511813.0
421,AUVERGNE-RHONE-ALPES,SAVOIE,73065,CHAMBERY,110.0,2084616.0,8125.0,ificom-2020.xlsx,2020.0,45.583182552,5.90903392417,893750.0
422,BOURGOGNE-FRANCHE-COMTE,COTE-D'OR,21231,DIJON,176.0,2189934.0,8714.0,ificom-2020.xlsx,2020.0,47.3229437965,5.03788805877,1533664.0
423,BOURGOGNE-FRANCHE-COMTE,DOUBS,25056,BESANCON,94.0,2038635.0000000002,7353.0,ificom-2020.xlsx,2020.0,47.2553872249,6.01948696494,691182.0
424,BRETAGNE,FINISTERE,29019,BREST,80.0,2413798.0,10697.0,ificom-2020.xlsx,2020.0,48.4004997828,-4.5027907853,855760.0
425,BRETAGNE,ILLE-ET-VILAINE,35238,RENNES,514.0,2437244.0,11005.0,ificom-2020.xlsx,2020.0,48.1119791219,-1.68186449144,5656570.0
426,BRETAGNE,ILLE-ET-VILAINE,35288,SAINT MALO,175.0,2206337.0,9449.0,ificom-2020.xlsx,2020.0,48.6400443482,-1.98060627256,1653575.0
427,BRETAGNE,MORBIHAN,56260,VANNES,145.0,2038408.0,7929.0,ificom-2020.xlsx,2020.0,47.6597493766,-2.75714329498,1149705.0
428,CENTRE-VAL DE LOIRE,EURE-ET-LOIR,28085,CHARTRES,84.0,2381736.0,10929.0,ificom-2020.xlsx,2020.0,48.4471464884,1.50570610616,918036.0
429,CENTRE-VAL DE LOIRE,INDRE-ET-LOIRE,37261,TOURS,181.0,2106683.0,8074.999999999999,ificom-2020.xlsx,2020.0,47.3986382281,0.696526376417,1461574.9999999998
430,CENTRE-VAL DE LOIRE,LOIRET,45234,ORLEANS,141.0,2347640.0,9885.0,ificom-2020.xlsx,2020.0,47.8828634214,1.91610357477,1393785.0
431,CORSE,CORSE-DU-SUD,2A004,AJACCIO,162.0,2465626.0,11599.0,ificom-2020.xlsx,2020.0,41.9347926638,8.70132275974,1879038.0
432,CORSE,HAUTE-CORSE,2B033,BASTIA,61.0,2240652.0,9871.0,ificom-2020.xlsx,2020.0,42.6864768806,9.42502133338,602131.0
433,GRAND-EST,BAS-RHIN,67482,STRASBOURG,655.0,2399379.0,10165.0,ificom-2020.xlsx,2020.0,48.5712679849,7.76752679517,6658075.0
434,GRAND-EST,HAUT-RHIN,68066,COLMAR,90.0,2502878.0,11356.0,ificom-2020.xlsx,2020.0,48.1099405789,7.38468690323,1022040.0
435,GRAND-EST,HAUT-RHIN,68224,MULHOUSE,81.0,2249483.0,9727.0,ificom-2020.xlsx,2020.0,47.749163303,7.32570047509,787887.0
436,GRAND-EST,MARNE,51454,REIMS,254.0,2083609.0,7917.0,ificom-2020.xlsx,2020.0,49.2514906066,4.0402302322,2010918.0
437,GRAND-EST,MEURTHE-ET-MOSELLE,54395,NANCY,187.0,2374111.0,11623.0,ificom-2020.xlsx,2020.0,48.6901995499,6.17588254434,2173501.0
438,GRAND-EST,MOSELLE,57463,METZ,129.0,2175512.0,8769.0,ificom-2020.xlsx,2020.0,49.1081133279,6.1955245421,1131201.0
439,GRAND-EST,MOSELLE,57672,THIONVILLE,60.0,2020480.0,7745.0,ificom-2020.xlsx,2020.0,49.3759716201,6.12928314217,464700.0
440,ILE-DE-FRANCE,ESSONNE,91114,BRUNOY,59.0,2148390.0,8575.0,ificom-2020.xlsx,2020.0,48.6964396294,2.50394753271,505925.0
441,ILE-DE-FRANCE,ESSONNE,91272,GIF SUR YVETTE,100.0,2064804.0,7524.0,ificom-2020.xlsx,2020.0,48.6988273634,2.12788365005,752400.0
442,ILE-DE-FRANCE,ESSONNE,91477,PALAISEAU,55.0,3043483.0,11759.0,ificom-2020.xlsx,2020.0,48.7146765876,2.22881488083,646745.0
443,ILE-DE-FRANCE,HAUTS-DE-SEINE,92002,ANTONY,257.0,2015587.0,7526.0,ificom-2020.xlsx,2020.0,48.7503412602,2.2993268102,1934182.0
444,ILE-DE-FRANCE,HAUTS-DE-SEINE,92004,ASNIERES,331.0,2210552.0,8982.0,ificom-2020.xlsx,2020.0,48.9153530123,2.2880384663,2973042.0
445,ILE-DE-FRANCE,HAUTS-DE-SEINE,92009,BOIS-COLOMBES,133.0,2024495.0,6943.0,ificom-2020.xlsx,2020.0,48.9153368426,2.26738552597,923419.0
446,ILE-DE-FRANCE,HAUTS-DE-SEINE,92012,BOULOGNE BILLANCOURT,1846.0,2261528.0,9127.0,ificom-2020.xlsx,2020.0,48.8365843138,2.23913599058,16848442.0
447,ILE-DE-FRANCE,HAUTS-DE-SEINE,92014,BOURG LA REINE,162.0,2314252.0,9868.0,ificom-2020.xlsx,2020.0,48.7799073627,2.31643010763,1598616.0
448,ILE-DE-FRANCE,HAUTS-DE-SEINE,92019,CHATENAY MALABRY,110.0,2081024.0000000002,8022.0,ificom-2020.xlsx,2020.0,48.7681690197,2.26282598525,882420.0
449,ILE-DE-FRANCE,HAUTS-DE-SEINE,92020,CHATILLON,92.0,2161120.0,9204.0,ificom-2020.xlsx,2020.0,48.8034091756,2.28799131883,846768.0
450,ILE-DE-FRANCE,HAUTS-DE-SEINE,92022,CHAVILLE,112.0,1937919.0,6799.0,ificom-2020.xlsx,2020.0,48.8076083562,2.19234061062,761488.0
451,ILE-DE-FRANCE,HAUTS-DE-SEINE,92023,CLAMART,261.0,2049135.0000000002,7312.0,ificom-2020.xlsx,2020.0,48.7964306792,2.25474652922,1908432.0
452,ILE-DE-FRANCE,HAUTS-DE-SEINE,92025,COLOMBES,192.0,2046990.9999999998,7268.0,ificom-2020.xlsx,2020.0,48.9225179147,2.24675160629,1395456.0
453,ILE-DE-FRANCE,HAUTS-DE-SEINE,92026,COURBEVOIE,377.0,2043659.0,7496.0,ificom-2020.xlsx,2020.0,48.8984504771,2.25570587289,2825992.0
454,ILE-DE-FRANCE,HAUTS-DE-SEINE,92032,FONTENAY AUX ROSES,77.0,2019588.0000000002,7443.0,ificom-2020.xlsx,2020.0,48.7897301312,2.28723493557,573111.0
455,ILE-DE-FRANCE,HAUTS-DE-SEINE,92035,LA GARENNE COLOMBES,165.0,2197033.0,9272.0,ificom-2020.xlsx,2020.0,48.9067577111,2.24464604084,1529880.0
456,ILE-DE-FRANCE,HAUTS-DE-SEINE,92040,ISSY LES MOULINEAUX,380.0,2035225.0,7379.0,ificom-2020.xlsx,2020.0,48.82347434,2.26449823277,2804020.0
457,ILE-DE-FRANCE,HAUTS-DE-SEINE,92044,LEVALLOIS-PERRET,633.0,2316840.0,9453.0,ificom-2020.xlsx,2020.0,48.895071672,2.28688268127,5983749.0
458,ILE-DE-FRANCE,HAUTS-DE-SEINE,92046,MALAKOFF,67.0,2263465.0,8779.0,ificom-2020.xlsx,2020.0,48.8169695977,2.29693599517,588193.0
459,ILE-DE-FRANCE,HAUTS-DE-SEINE,92048,MEUDON,379.0,2118038.0,7706.0,ificom-2020.xlsx,2020.0,48.8037275796,2.22696287829,2920574.0
460,ILE-DE-FRANCE,HAUTS-DE-SEINE,92049,MONTROUGE,198.0,2143076.0,9341.0,ificom-2020.xlsx,2020.0,48.8153032159,2.31648921432,1849518.0
461,ILE-DE-FRANCE,HAUTS-DE-SEINE,92050,NANTERRE,98.0,2119191.0,8468.0,ificom-2020.xlsx,2020.0,48.8960701282,2.20671346353,829864.0
462,ILE-DE-FRANCE,HAUTS-DE-SEINE,92051,NEUILLY SUR SEINE,3566.0,2871078.0,14225.0,ificom-2020.xlsx,2020.0,48.8853719688,2.26642584746,50726350.0
463,ILE-DE-FRANCE,HAUTS-DE-SEINE,92060,LE PLESSIS ROBINSON,70.0,2154687.0,7935.0,ificom-2020.xlsx,2020.0,48.7804383642,2.26064286011,555450.0
464,ILE-DE-FRANCE,HAUTS-DE-SEINE,92062,PUTEAUX,134.0,2121506.0,8477.0,ificom-2020.xlsx,2020.0,48.8837094969,2.23834178314,1135918.0
465,ILE-DE-FRANCE,HAUTS-DE-SEINE,92063,RUEIL MALMAISON,666.0,2145313.0,7956.0,ificom-2020.xlsx,2020.0,48.8691897371,2.1773406315,5298696.0
466,ILE-DE-FRANCE,HAUTS-DE-SEINE,92064,SAINT CLOUD,625.0,2421389.0,10363.0,ificom-2020.xlsx,2020.0,48.8428741034,2.20864570316,6476875.0
467,ILE-DE-FRANCE,HAUTS-DE-SEINE,92072,SEVRES,261.0,2091828.0,7787.0,ificom-2020.xlsx,2020.0,48.821476509,2.21052297438,2032407.0
468,ILE-DE-FRANCE,HAUTS-DE-SEINE,92073,SURESNES,262.0,2034503.0,7113.0,ificom-2020.xlsx,2020.0,48.8698479132,2.21965517625,1863606.0
469,ILE-DE-FRANCE,HAUTS-DE-SEINE,92075,VANVES,148.0,2025535.9999999998,7491.0,ificom-2020.xlsx,2020.0,48.8215227089,2.28739490768,1108668.0
470,ILE-DE-FRANCE,PARIS,75101,PARIS 1er,539.0,2805955.0,13503.0,ificom-2020.xlsx,2020.0,48.8626304852,2.33629344655,7278117.0
471,ILE-DE-FRANCE,PARIS,75102,PARIS 2e,310.0,2393482.0,10928.0,ificom-2020.xlsx,2020.0,48.8679033789,2.34410716666,3387680.0
472,ILE-DE-FRANCE,PARIS,75103,PARIS 3e,778.0,2552963.0,12493.0,ificom-2020.xlsx,2020.0,48.8630541318,2.35936105897,9719554.0
473,ILE-DE-FRANCE,PARIS,75104,PARIS 4e,872.0,2757815.0,13092.0,ificom-2020.xlsx,2020.0,48.854228282,2.35736193814,11416224.0
474,ILE-DE-FRANCE,PARIS,75105,PARIS 5e,1663.0,2450633.0,10562.0,ificom-2020.xlsx,2020.0,48.8445086596,2.34985938556,17564606.0
475,ILE-DE-FRANCE,PARIS,75106,PARIS 6e,2739.0,2884566.0,14491.0,ificom-2020.xlsx,2020.0,48.8489680919,2.33267089859,39690849.0
476,ILE-DE-FRANCE,PARIS,75107,PARIS 7e,4166.0,3265347.0,17139.0,ificom-2020.xlsx,2020.0,48.8560825982,2.31243868773,71401074.0
477,ILE-DE-FRANCE,PARIS,75108,PARIS 8e,2169.0,2907868.0,14370.0,ificom-2020.xlsx,2020.0,48.8725272666,2.31258256042,31168530.0
478,ILE-DE-FRANCE,PARIS,75109,PARIS 9e,1183.0,2282679.0,9293.0,ificom-2020.xlsx,2020.0,48.8768961624,2.33746024139,10993619.0
479,ILE-DE-FRANCE,PARIS,75110,PARIS 10e,593.0,2143113.0,8192.0,ificom-2020.xlsx,2020.0,48.8760285569,2.36111290456,4857856.0
480,ILE-DE-FRANCE,PARIS,75111,PARIS 11e,1085.0,2237693.0,8773.0,ificom-2020.xlsx,2020.0,48.8594154976,2.37874106024,9518705.0
481,ILE-DE-FRANCE,PARIS,75112,PARIS 12e,1161.0,2249229.0,8950.0,ificom-2020.xlsx,2020.0,48.8351562307,2.41980703497,10390950.0
482,ILE-DE-FRANCE,PARIS,75113,PARIS 13e,1006.0,2182279.0,8641.0,ificom-2020.xlsx,2020.0,48.8287176845,2.36246822852,8692846.0
483,ILE-DE-FRANCE,PARIS,75114,PARIS 14e,1793.0,2343339.0,10084.0,ificom-2020.xlsx,2020.0,48.8289932116,2.32710088326,18080612.0
484,ILE-DE-FRANCE,PARIS,75115,PARIS 15e,3239.0,2276721.0,9289.0,ificom-2020.xlsx,2020.0,48.8401554186,2.29355937244,30087071.0
485,ILE-DE-FRANCE,PARIS,75116,PARIS 16e,9030.0,2881886.0,14188.0,ificom-2020.xlsx,2020.0,48.8603987604,2.2620995594,128117640.0
486,ILE-DE-FRANCE,PARIS,75117,PARIS 17e,3746.0,2465934.0,10332.0,ificom-2020.xlsx,2020.0,48.8873371665,2.30748555949,38703672.0
487,ILE-DE-FRANCE,PARIS,75118,PARIS 18e,823.0,2598371.0,11427.0,ificom-2020.xlsx,2020.0,48.8927350746,2.34871193387,9404421.0
488,ILE-DE-FRANCE,PARIS,75119,PARIS 18e,498.0,2258958.0,8891.0,ificom-2020.xlsx,2020.0,48.886868623,2.38469432787,4427718.0
489,ILE-DE-FRANCE,PARIS,75120,PARIS 20e,510.0,2155114.0,8655.0,ificom-2020.xlsx,2020.0,48.8631867774,2.40081982673,4414050.0
490,ILE-DE-FRANCE,SEINE-ET-MARNE,77284,MEAUX,53.0,2100117.0,7635.0,ificom-2020.xlsx,2020.0,48.9570625667,2.90003097245,404655.0
491,ILE-DE-FRANCE,SEINE-SAINT-DENIS,93045,LES LILAS,51.0,2027136.0,7320.0,ificom-2020.xlsx,2020.0,48.8819208939,2.419667821,373320.0
492,ILE-DE-FRANCE,SEINE-SAINT-DENIS,93048,MONTREUIL SOUS BOIS,102.0,1958129.0,7102.0,ificom-2020.xlsx,2020.0,48.8633175054,2.44816211857,724404.0
493,ILE-DE-FRANCE,SEINE-SAINT-DENIS,93051,NOISY LE GRAND,60.0,2355900.0,10328.0,ificom-2020.xlsx,2020.0,48.8361825401,2.56443736814,619680.0
494,ILE-DE-FRANCE,SEINE-SAINT-DENIS,93077,VILLEMOMBLE,53.0,2384303.0,11006.0,ificom-2020.xlsx,2020.0,48.8848370021,2.50893406035,583318.0
495,ILE-DE-FRANCE,VAL-DE-MARNE,94016,CACHAN,51.0,1982763.0,6764.0,ificom-2020.xlsx,2020.0,48.7916121646,2.33153313164,344964.0
496,ILE-DE-FRANCE,VAL-DE-MARNE,94017,CHAMPIGNY SUR MARNE,62.0,2106021.0,8677.0,ificom-2020.xlsx,2020.0,48.817254364,2.51709815257,537974.0
497,ILE-DE-FRANCE,VAL-DE-MARNE,94018,CHARENTON LE PONT,211.0,2127032.0,8118.0,ificom-2020.xlsx,2020.0,48.8228084978,2.40760915477,1712898.0
498,ILE-DE-FRANCE,VAL-DE-MARNE,94028,CRETEIL,78.0,1986890.0,7120.0,ificom-2020.xlsx,2020.0,48.7837401836,2.45463530415,555360.0
499,ILE-DE-FRANCE,VAL-DE-MARNE,94033,FONTENAY SOUS BOIS,270.0,2354795.0,9713.0,ificom-2020.xlsx,2020.0,48.8511046382,2.47395409774,2622510.0
500,ILE-DE-FRANCE,VAL-DE-MARNE,94038,L'HAY LES ROSES,57.0,1985493.0,7559.0,ificom-2020.xlsx,2020.0,48.7763207843,2.33772915609,430863.0
501,ILE-DE-FRANCE,VAL-DE-MARNE,94046,MAISONS-ALFORT,118.0,2113140.0,8178.000000000001,ificom-2020.xlsx,2020.0,48.8063923267,2.43818248906,965004.0000000001
502,ILE-DE-FRANCE,VAL-DE-MARNE,94052,NOGENT SUR MARNE,314.0,2845109.0,8549.0,ificom-2020.xlsx,2020.0,48.8366634713,2.48166741533,2684386.0
503,ILE-DE-FRANCE,VAL-DE-MARNE,94058,LE PERREUX SUR MARNE,173.0,2113725.0,7758.0,ificom-2020.xlsx,2020.0,48.8423952383,2.50406848573,1342134.0
504,ILE-DE-FRANCE,VAL-DE-MARNE,94067,SAINT MANDE,419.0,2495415.0,10864.0,ificom-2020.xlsx,2020.0,48.842440243,2.4192191088,4552016.0
505,ILE-DE-FRANCE,VAL-DE-MARNE,94068,SAINT MAUR DES FOSSES,668.0,2207442.0,8997.0,ificom-2020.xlsx,2020.0,48.7990677797,2.49386450452,6009996.0
506,ILE-DE-FRANCE,VAL-DE-MARNE,94071,SUCY EN BRIE,60.0,2043044.0,7684.0,ificom-2020.xlsx,2020.0,48.7656456593,2.5330560803,461040.0
507,ILE-DE-FRANCE,VAL-DE-MARNE,94080,VINCENNES,446.0,2155274.0,8278.0,ificom-2020.xlsx,2020.0,48.8473732045,2.43798650741,3691988.0
508,ILE-DE-FRANCE,VAL-DE-MARNE,94081,VITRY SUR SEINE,53.0,2099996.0,8661.0,ificom-2020.xlsx,2020.0,48.7882828307,2.39412680533,459033.0
509,ILE-DE-FRANCE,VAL-D'OISE,95428,MONTMORENCY,117.0,2353003.0,11105.0,ificom-2020.xlsx,2020.0,48.9918643363,2.32119797848,1299285.0
510,ILE-DE-FRANCE,YVELINES,78126,LA CELLE-SAINT-CLOUD,195.0,2290647.0,7477.0,ificom-2020.xlsx,2020.0,48.8469487124,2.13519126228,1458015.0
511,ILE-DE-FRANCE,YVELINES,78146,CHATOU,222.0,2097904.0,7571.0,ificom-2020.xlsx,2020.0,48.8965574645,2.15393458329,1680762.0
512,ILE-DE-FRANCE,YVELINES,78158,LE CHESNAY-ROCQUENCOURT,320.0,2043637.0,7073.0,ificom-2020.xlsx,2020.0,48.8272397742,2.13014908209,2263360.0
513,ILE-DE-FRANCE,YVELINES,78358,MAISONS-LAFFITTE,240.0,2142351.0,8090.999999999999,ificom-2020.xlsx,2020.0,48.9523369002,2.15161594901,1941839.9999999998
514,ILE-DE-FRANCE,YVELINES,78517,RAMBOUILLET,80.0,2105455.0,8385.0,ificom-2020.xlsx,2020.0,48.6539051954,1.82652871851,670800.0
515,ILE-DE-FRANCE,YVELINES,78551,SAINT-GERMAIN-EN-LAYE,612.0,2183282.0,7928.0,ificom-2020.xlsx,2020.0,48.9407041394,2.09870929375,4851936.0
516,ILE-DE-FRANCE,YVELINES,78646,VERSAILLES,1230.0,2251628.0,8412.0,ificom-2020.xlsx,2020.0,48.8025669671,2.11789297191,10346760.0
517,LA REUNION,LA REUNION,97411,SAINT DENIS,293.0,2383615.0,11004.0,ificom-2020.xlsx,2020.0,-20.9329708192,55.446867167,3224172.0
518,LA REUNION,LA REUNION,97415,SAINT PAUL,175.0,2144491.0,8940.0,ificom-2020.xlsx,2020.0,-21.0445317522,55.3223334298,1564500.0
519,LA REUNION,LA REUNION,97416,SAINT PIERRE,111.0,2385917.0,11002.0,ificom-2020.xlsx,2020.0,-21.3123242427,55.4936155164,1221222.0
520,LA REUNION,LA REUNION,97422,TAMPON,93.0,2143365.0,8852.0,ificom-2020.xlsx,2020.0,-21.223274585,55.5584875266,823236.0
521,LES-HAUTS-DE-FRANCE,NORD,59009,VILLENEUVE D'ASCQ,109.0,2352335.0,7018.0,ificom-2020.xlsx,2020.0,50.6324372393,3.1535257221,764962.0
522,LES-HAUTS-DE-FRANCE,NORD,59163,CROIX,90.0,2167695.0,7503.0,ificom-2020.xlsx,2020.0,50.6740689994,3.15464041723,675270.0
523,LES-HAUTS-DE-FRANCE,NORD,59183,DUNKERQUE,59.0,2063524.9999999998,8042.0,ificom-2020.xlsx,2020.0,51.0307229078,2.33752414095,474478.0
524,LES-HAUTS-DE-FRANCE,NORD,59328,LAMBERSART,70.0,2458088.0,9225.0,ificom-2020.xlsx,2020.0,50.6522053005,3.02491174276,645750.0
525,LES-HAUTS-DE-FRANCE,NORD,59350,LILLE,304.0,2389999.0,10621.0,ificom-2020.xlsx,2020.0,50.6317183168,3.04783272312,3228784.0
526,LES-HAUTS-DE-FRANCE,NORD,59368,LA MADELEINE,54.0,2359042.0,9111.0,ificom-2020.xlsx,2020.0,50.6548883138,3.06963722507,491994.0
527,LES-HAUTS-DE-FRANCE,NORD,59378,MARCQ EN BAROEUL,228.0,2388338.0,8570.0,ificom-2020.xlsx,2020.0,50.6753348557,3.10093583816,1953960.0
528,LES-HAUTS-DE-FRANCE,NORD,59646,WASQUEHAL,71.0,2124288.0,7591.0,ificom-2020.xlsx,2020.0,50.6750984751,3.12858017096,538961.0
529,LES-HAUTS-DE-FRANCE,OISE,60057,BEAUVAIS,61.0,3055466.0,13556.0,ificom-2020.xlsx,2020.0,49.4365523321,2.08616123661,826916.0
530,LES-HAUTS-DE-FRANCE,OISE,60159,COMPIEGNE,100.0,2791353.0,15025.0,ificom-2020.xlsx,2020.0,49.3990601478,2.85317249363,1502500.0
531,LES-HAUTS-DE-FRANCE,SOMME,80021,AMIENS,165.0,2106323.0,8044.000000000001,ificom-2020.xlsx,2020.0,49.9009532186,2.29007445539,1327260.0000000002
532,NORMANDIE,CALVADOS,14118,CAEN,193.0,2184839.0,9207.0,ificom-2020.xlsx,2020.0,49.1847936737,-0.369801713036,1776951.0
533,NORMANDIE,SEINE-MARITIME,76351,LE HAVRE,96.0,2184636.0,9070.0,ificom-2020.xlsx,2020.0,49.498452502,0.140153719153,870720.0
534,NORMANDIE,SEINE-MARITIME,76540,ROUEN,152.0,2145965.0,8751.0,ificom-2020.xlsx,2020.0,49.4413460103,1.09256784278,1330152.0
535,NOUVELLE-AQUITAINE,CHARENTE-MARITIME,17300,LA ROCHELLE,236.0,2087858.0000000002,7857.0,ificom-2020.xlsx,2020.0,46.1620643972,-1.17465702836,1854252.0
536,NOUVELLE-AQUITAINE,CORREZE,19031,BRIVE,59.0,2764393.0,15444.0,ificom-2020.xlsx,2020.0,45.1435830664,1.51936836063,911196.0
537,NOUVELLE-AQUITAINE,DEUX-SEVRES,79191,NIORT,51.0,2266692.0,10292.0,ificom-2020.xlsx,2020.0,46.328260242,-0.465353019369,524892.0
538,NOUVELLE-AQUITAINE,GIRONDE,33063,BORDEAUX,1575.0,2247046.0,9299.0,ificom-2020.xlsx,2020.0,44.8572445351,-0.57369678116,14645925.0
539,NOUVELLE-AQUITAINE,GIRONDE,33069,LE BOUSCAT,197.0,2468063.0,11565.0,ificom-2020.xlsx,2020.0,44.8661298323,-0.602121558626,2278305.0
540,NOUVELLE-AQUITAINE,GIRONDE,33192,GRADIGNAN,71.0,2260960.0,9111.0,ificom-2020.xlsx,2020.0,44.7709411201,-0.616137682116,646881.0
541,NOUVELLE-AQUITAINE,GIRONDE,33281,MERIGNAC,152.0,2139603.0,8930.0,ificom-2020.xlsx,2020.0,44.8322953289,-0.681733084891,1357360.0
542,NOUVELLE-AQUITAINE,GIRONDE,33318,PESSAC,118.0,2078917.9999999998,7077.0,ificom-2020.xlsx,2020.0,44.7915990521,-0.676303166277,835086.0
543,NOUVELLE-AQUITAINE,GIRONDE,33449,SAINT-MEDARD-EN-JALLES,52.0,2165972.0,8293.0,ificom-2020.xlsx,2020.0,44.8832620816,-0.784239883546,431236.0
544,NOUVELLE-AQUITAINE,GIRONDE,33522,TALENCE,88.0,2183650.0,8684.0,ificom-2020.xlsx,2020.0,44.8060817507,-0.591124592873,764192.0
545,NOUVELLE-AQUITAINE,GIRONDE,33529,LA TESTE DE BUCH,195.0,2309321.0,9374.0,ificom-2020.xlsx,2020.0,44.5561823053,-1.17530826791,1827930.0
546,NOUVELLE-AQUITAINE,HAUTE-VIENNE,87085,LIMOGES,139.0,2287185.0,9998.0,ificom-2020.xlsx,2020.0,45.8542549589,1.2487579024,1389722.0
547,NOUVELLE-AQUITAINE,PYRENEES-ATLANTIQUES,64024,ANGLET,207.0,2066437.0,7957.0,ificom-2020.xlsx,2020.0,43.4917846595,-1.51623373371,1647099.0
548,NOUVELLE-AQUITAINE,PYRENEES-ATLANTIQUES,64102,BAYONNE,129.0,2071107.0,7940.0,ificom-2020.xlsx,2020.0,43.4922254016,-1.46607674358,1024260.0
549,NOUVELLE-AQUITAINE,PYRENEES-ATLANTIQUES,64122,BIARRITZ,273.0,2213642.0,8781.0,ificom-2020.xlsx,2020.0,43.4695847227,-1.55309857519,2397213.0
550,NOUVELLE-AQUITAINE,PYRENEES-ATLANTIQUES,64445,PAU,112.0,1895825.0,6563.0,ificom-2020.xlsx,2020.0,43.3200189773,-0.350337918181,735056.0
551,NOUVELLE-AQUITAINE,VIENNE,86194,POITIERS,88.0,2020657.0,7501.0,ificom-2020.xlsx,2020.0,46.5839207726,0.359947653003,660088.0
552,OCCITANIE,AUDE,11262,NARBONNE,52.0,2002954.0,7671.0,ificom-2020.xlsx,2020.0,43.1652399898,3.02023868739,398892.0
553,OCCITANIE,GARD,30189,NIMES,207.0,2071124.9999999998,8384.0,ificom-2020.xlsx,2020.0,43.844938394,4.34806796996,1735488.0
554,OCCITANIE,HAUTE-GARONNE,31555,TOULOUSE,1137.0,2215079.0,8744.0,ificom-2020.xlsx,2020.0,43.5963814303,1.43167293364,9941928.0
555,OCCITANIE,HAUTE-GARONNE,31557,TOURNEFEUILLE,59.0,2135008.0,8366.0,ificom-2020.xlsx,2020.0,43.5781918597,1.33500697752,493594.0
556,OCCITANIE,HERAULT,34003,AGDE,66.0,2155865.0,8598.0,ificom-2020.xlsx,2020.0,43.309129116,3.48447903133,567468.0
557,OCCITANIE,HERAULT,34032,BEZIERS,74.0,2295292.0,9706.0,ificom-2020.xlsx,2020.0,43.3475883319,3.23076754164,718244.0
558,OCCITANIE,HERAULT,34057,CASTELNAU LE LEZ,97.0,2199451.0,9426.0,ificom-2020.xlsx,2020.0,43.6380218809,3.91265416028,914322.0
559,OCCITANIE,HERAULT,34172,MONTPELLIER,433.0,2289473.0,8819.0,ificom-2020.xlsx,2020.0,43.6134409138,3.86851657896,3818627.0
560,OCCITANIE,HERAULT,34301,SETE,100.0,2015683.9999999998,7706.0,ificom-2020.xlsx,2020.0,43.3917705831,3.64705148296,770600.0
561,OCCITANIE,PYRENEES-ORIENTALES,66136,PERPIGNAN,128.0,2137267.0,8836.0,ificom-2020.xlsx,2020.0,42.6965954131,2.89936953979,1131008.0
562,OCCITANIE,TARN,81004,ALBI,62.0,1967843.0,6819.0,ificom-2020.xlsx,2020.0,43.9258213622,2.14686328555,422778.0
563,OCCITANIE,TARN-ET-GARONNE,82121,MONTAUBAN,70.0,1970725.0,7169.0,ificom-2020.xlsx,2020.0,44.0222594578,1.36408636501,501830.0
564,PAYS DE LA LOIRE,LOIRE-ATLANTIQUE,44109,NANTES,897.0,2264963.0,9383.0,ificom-2020.xlsx,2020.0,47.2316356767,-1.54831008605,8416551.0
565,PAYS DE LA LOIRE,LOIRE-ATLANTIQUE,44114,ORVAULT,57.0,1891902.0,6495.0,ificom-2020.xlsx,2020.0,47.2739815478,-1.62323898524,370215.0
566,PAYS DE LA LOIRE,LOIRE-ATLANTIQUE,44215,VERTOU,62.0,2017899.0,7912.0,ificom-2020.xlsx,2020.0,47.1603732625,-1.47052291749,490544.0
567,PAYS DE LA LOIRE,MAINE-ET-LOIRE,49007,ANGERS,158.0,1947457.0,6851.0,ificom-2020.xlsx,2020.0,47.476837416,-0.556125995444,1082458.0
568,PAYS DE LA LOIRE,MAYENNE,53130,LAVAL,67.0,2446329.0,10555.0,ificom-2020.xlsx,2020.0,48.0608565468,-0.766005687142,707185.0
569,PAYS DE LA LOIRE,SARTHE,72181,LE MANS,158.0,2173667.0,8726.0,ificom-2020.xlsx,2020.0,47.9885256718,0.200030493539,1378708.0
570,PAYS DE LA LOIRE,VENDEE,85194,LES SABLES D'OLONNE,131.0,2167100.0,9101.0,ificom-2020.xlsx,2020.0,46.5007612799,-1.79255128677,1192231.0
571,PROVENCE-ALPES-COTE D'AZUR,ALPES-MARITIMES,06004,ANTIBES,407.0,2179041.0,8780.0,ificom-2020.xlsx,2020.0,43.587465146,7.10635418256,3573460.0
572,PROVENCE-ALPES-COTE D'AZUR,ALPES-MARITIMES,06027,CAGNES SUR MER,154.0,2058262.0,8122.0,ificom-2020.xlsx,2020.0,43.6715162078,7.15275703379,1250788.0
573,PROVENCE-ALPES-COTE D'AZUR,ALPES-MARITIMES,06029,CANNES,658.0,2901833.0,12827.0,ificom-2020.xlsx,2020.0,43.5526202843,7.00427592728,8440166.0
574,PROVENCE-ALPES-COTE D'AZUR,ALPES-MARITIMES,06030,LE CANNET,158.0,2306599.0,9993.0,ificom-2020.xlsx,2020.0,43.5729768613,7.00642057758,1578894.0
575,PROVENCE-ALPES-COTE D'AZUR,ALPES-MARITIMES,06069,GRASSE,126.0,2806244.0,18665.0,ificom-2020.xlsx,2020.0,43.655639428,6.93190508233,2351790.0
576,PROVENCE-ALPES-COTE D'AZUR,ALPES-MARITIMES,06079,MANDELIEU LA NAPOULE,116.0,2493737.0,13506.0,ificom-2020.xlsx,2020.0,43.5380510468,6.91808936542,1566696.0
577,PROVENCE-ALPES-COTE D'AZUR,ALPES-MARITIMES,06083,MENTON,86.0,1845684.0,6238.0,ificom-2020.xlsx,2020.0,43.7908233727,7.49365612374,536468.0
578,PROVENCE-ALPES-COTE D'AZUR,ALPES-MARITIMES,06088,NICE,1216.0,2218521.0,9339.0,ificom-2020.xlsx,2020.0,43.7119992661,7.23826889465,11356224.0
579,PROVENCE-ALPES-COTE D'AZUR,ALPES-MARITIMES,06123,SAINT LAURENT DU VAR,82.0,2140158.0,8355.0,ificom-2020.xlsx,2020.0,43.6859625772,7.18218791815,685110.0
580,PROVENCE-ALPES-COTE D'AZUR,ALPES-MARITIMES,06155,VALLAURIS,164.0,2119382.0,8364.0,ificom-2020.xlsx,2020.0,43.5766472999,7.05836612893,1371696.0
581,PROVENCE-ALPES-COTE D'AZUR,BOUCHES-DU-RHONE,13001,AIX EN PROVENCE,895.0,2285318.0,9664.0,ificom-2020.xlsx,2020.0,43.5360708378,5.39857444582,8649280.0
582,PROVENCE-ALPES-COTE D'AZUR,BOUCHES-DU-RHONE,13004,ARLES,73.0,1932999.0,6861.0,ificom-2020.xlsx,2020.0,43.5468692378,4.66215642574,500853.0
583,PROVENCE-ALPES-COTE D'AZUR,BOUCHES-DU-RHONE,13005,AUBAGNE,80.0,2057735.0,8050.000000000001,ificom-2020.xlsx,2020.0,43.2934843764,5.56331273477,644000.0000000001
584,PROVENCE-ALPES-COTE D'AZUR,BOUCHES-DU-RHONE,13028,LA CIOTAT,100.0,2089652.0,8364.0,ificom-2020.xlsx,2020.0,43.1926410861,5.61318955778,836400.0
585,PROVENCE-ALPES-COTE D'AZUR,BOUCHES-DU-RHONE,13103,SALON DE PROVENCE,57.0,2137781.0,8241.0,ificom-2020.xlsx,2020.0,43.6462885238,5.06814649576,469737.0
586,PROVENCE-ALPES-COTE D'AZUR,HAUTES-ALPES,05061,GAP,57.0,2224957.0,8488.0,ificom-2020.xlsx,2020.0,44.5798600596,6.06486052138,483816.0
587,PROVENCE-ALPES-COTE D'AZUR,VAR,83050,DRAGUIGNAN,70.0,2166569.0,9748.0,ificom-2020.xlsx,2020.0,43.5357513285,6.45436569191,682360.0
588,PROVENCE-ALPES-COTE D'AZUR,VAR,83061,FREJUS,144.0,2199691.0,8213.0,ificom-2020.xlsx,2020.0,43.4719558114,6.76361597424,1182672.0
589,PROVENCE-ALPES-COTE D'AZUR,VAR,83069,HYERES,235.0,2030627.0,7436.0,ificom-2020.xlsx,2020.0,43.1018713534,6.18898508469,1747460.0
590,PROVENCE-ALPES-COTE D'AZUR,VAR,83118,SAINT-RAPHAEL,302.0,2191693.0,9322.0,ificom-2020.xlsx,2020.0,43.4574625431,6.84734210398,2815244.0
591,PROVENCE-ALPES-COTE D'AZUR,VAR,83126,LA SEYNE SUR MER,54.0,1966644.0,8045.999999999999,ificom-2020.xlsx,2020.0,43.0880294967,5.87089841754,434483.99999999994
592,PROVENCE-ALPES-COTE D'AZUR,VAR,83129,SIX-FOURS-LES-PLAGES,107.0,2097259.0,8164.999999999999,ificom-2020.xlsx,2020.0,43.086818602,5.82924464931,873654.9999999999
593,PROVENCE-ALPES-COTE D'AZUR,VAR,83137,TOULON,241.0,2200455.0,9547.0,ificom-2020.xlsx,2020.0,43.1361589728,5.93239634249,2300827.0
594,PROVENCE-ALPES-COTE D'AZUR,VAUCLUSE,84007,AVIGNON,94.0,2029763.0,7301.0,ificom-2020.xlsx,2020.0,43.9352448339,4.84071572505,686294.0
595,PROVENCE-ALPES-COTE D'AZUR,ALPES-MARITIMES,06029,CANNES,626.0,2770439.0,12642.0,ificom-2019.xls,2019.0,43.5526202843,7.00427592728,7913892.0
596,PROVENCE-ALPES-COTE D'AZUR,ALPES-MARITIMES,06079,MANDELIEU LA NAPOULE,127.0,2395674.0,12211.0,ificom-2019.xls,2019.0,43.5380510468,6.91808936542,1550797.0
597,CORSE,CORSE-DU-SUD,2A004,AJACCIO,161.0,2407402.0,11106.0,ificom-2019.xls,2019.0,41.9347926638,8.70132275974,1788066.0
598,PROVENCE-ALPES-COTE D'AZUR,ALPES-MARITIMES,06030,LE CANNET,162.0,2317615.0,9959.0,ificom-2019.xls,2019.0,43.5729768613,7.00642057758,1613358.0
599,CORSE,HAUTE-CORSE,2B033,BASTIA,59.0,2196292.0,9580.0,ificom-2019.xls,2019.0,42.6864768806,9.42502133338,565220.0
600,PROVENCE-ALPES-COTE D'AZUR,HAUTES-ALPES,05061,GAP,57.0,2235849.0,9388.0,ificom-2019.xls,2019.0,44.5798600596,6.06486052138,535116.0
601,PROVENCE-ALPES-COTE D'AZUR,ALPES-MARITIMES,06069,GRASSE,124.0,2160182.0,9162.0,ificom-2019.xls,2019.0,43.655639428,6.93190508233,1136088.0
602,PROVENCE-ALPES-COTE D'AZUR,ALPES-MARITIMES,06123,SAINT LAURENT DU VAR,87.0,2188938.0,9157.0,ificom-2019.xls,2019.0,43.6859625772,7.18218791815,796659.0
603,PROVENCE-ALPES-COTE D'AZUR,ALPES-MARITIMES,06088,NICE,1243.0,2185850.0,9116.0,ificom-2019.xls,2019.0,43.7119992661,7.23826889465,11331188.0
604,PROVENCE-ALPES-COTE D'AZUR,ALPES-MARITIMES,06004,ANTIBES,418.0,2187869.0,8929.0,ificom-2019.xls,2019.0,43.587465146,7.10635418256,3732322.0
605,PROVENCE-ALPES-COTE D'AZUR,ALPES-MARITIMES,06155,VALLAURIS,168.0,2065740.0,7908.0,ificom-2019.xls,2019.0,43.5766472999,7.05836612893,1328544.0
606,PROVENCE-ALPES-COTE D'AZUR,ALPES-MARITIMES,06027,CAGNES SUR MER,153.0,2004050.0,7723.0,ificom-2019.xls,2019.0,43.6715162078,7.15275703379,1181619.0
607,PROVENCE-ALPES-COTE D'AZUR,ALPES-MARITIMES,06083,MENTON,90.0,1832887.0,5801.0,ificom-2019.xls,2019.0,43.7908233727,7.49365612374,522090.0
